$GPGGA,210012.000,5010.8246,N,02051.2388,E,2,9,1.01,161.1,M,41.7,M,0000,0000*58
$GPGLL,5010.8246,N,02051.2388,E,210012.000,A,D*57
$GPGGA,210013.000,5010.8246,N,02051.2388,E,2,8,1.05,161.1,M,41.7,M,0000,0000*5C
$GPGLL,5010.8246,N,02051.2388,E,210013.000,A,D*56
$GPGGA,210014.000,5010.8246,N,02051.2388,E,2,9,1.01,161.1,M,41.7,M,0000,0000*5E
$GPGLL,5010.8246,N,02051.2388,E,210014.000,A,D*51
$GPGGA,210015.000,5010.8246,N,02051.2388,E,2,8,1.05,161.1,M,41.7,M,0000,0000*5A
$GPGLL,5010.8246,N,02051.2388,E,210015.000,A,D*50
$GPGGA,210016.000,5010.8246,N,02051.2388,E,2,8,1.05,161.1,M,41.7,M,0000,0000*59
$GPGLL,5010.8246,N,02051.2388,E,210016.000,A,D*53
$GPGGA,210017.000,5010.8246,N,02051.2388,E,2,9,1.01,161.1,M,41.7,M,0000,0000*5D
$GPGLL,5010.8246,N,02051.2388,E,210017.000,A,D*52
$GPGGA,210018.000,5010.8246,N,02051.2388,E,2,8,1.05,161.2,M,41.7,M,0000,0000*54
$GPGLL,5010.8246,N,02051.2388,E,210018.000,A,D*5D
$GPGGA,210019.000,5010.8246,N,02051.2388,E,2,8,1.05,161.2,M,41.7,M,0000,0000*55
$GPGLL,5010.8246,N,02051.2388,E,210019.000,A,D*5C
$GPGGA,210020.000,5010.8246,N,02051.2388,E,2,8,1.05,161.2,M,41.7,M,0000,0000*5F
$GPGLL,5010.8246,N,02051.2388,E,210020.000,A,D*56
$GPGGA,210021.000,5010.8246,N,02051.2388,E,2,8,1.05,161.2,M,41.7,M,0000,0000*5E
$GPGLL,5010.8246,N,02051.2388,E,210021.000,A,D*57
$GPGGA,210022.000,5010.8246,N,02051.2388,E,2,8,1.05,161.2,M,41.7,M,0000,0000*5D
$GPGLL,5010.8246,N,02051.2388,E,210022.000,A,D*54
$GPGGA,210023.000,5010.8246,N,02051.2388,E,2,8,1.05,161.2,M,41.7,M,0000,0000*5C
$GPGLL,5010.8246,N,02051.2388,E,210023.000,A,D*55
$GPGGA,210024.000,5010.8246,N,02051.2388,E,2,8,1.05,161.2,M,41.7,M,0000,0000*5B
$GPGLL,5010.8246,N,02051.2388,E,210024.000,A,D*52
$GPGGA,210025.000,5010.8246,N,02051.2388,E,2,8,1.05,161.2,M,41.7,M,0000,0000*5A
$GPGLL,5010.8246,N,02051.2388,E,210025.000,A,D*53
$GPGGA,210026.000,5010.8246,N,02051.2388,E,2,9,1.01,161.2,M,41.7,M,0000,0000*5C
$GPGLL,5010.8246,N,02051.2388,E,210026.000,A,D*50
$GPGGA,210027.000,5010.8246,N,02051.2388,E,2,9,1.01,161.2,M,41.7,M,0000,0000*5D
$GPGLL,5010.8246,N,02051.2388,E,210027.000,A,D*51
$GPGGA,210028.000,5010.8246,N,02051.2388,E,2,9,1.01,161.2,M,41.7,M,0000,0000*52
$GPGLL,5010.8246,N,02051.2388,E,210028.000,A,D*5E
$GPGGA,210029.000,5010.8246,N,02051.2388,E,2,9,1.01,161.2,M,41.7,M,0000,0000*53
$GPGLL,5010.8246,N,02051.2388,E,210029.000,A,D*5F
$GPGGA,210030.000,5010.8246,N,02051.2388,E,2,9,1.01,161.2,M,41.7,M,0000,0000*5B
$GPGLL,5010.8246,N,02051.2388,E,210030.000,A,D*57
$GPGGA,210031.000,5010.8246,N,02051.2388,E,2,9,1.01,161.2,M,41.7,M,0000,0000*5A
$GPGLL,5010.8246,N,02051.2388,E,210031.000,A,D*56
$GPGGA,210032.000,5010.8246,N,02051.2388,E,2,9,1.01,161.2,M,41.7,M,0000,0000*59
$GPGLL,5010.8246,N,02051.2388,E,210032.000,A,D*55
$GPGGA,210033.000,5010.8246,N,02051.2388,E,2,8,1.05,161.2,M,41.7,M,0000,0000*5D
$GPGLL,5010.8246,N,02051.2388,E,210033.000,A,D*54
$GPGGA,210034.000,5010.8246,N,02051.2388,E,2,9,1.01,161.2,M,41.7,M,0000,0000*5F
$GPGLL,5010.8246,N,02051.2388,E,210034.000,A,D*53
$GPGGA,210035.000,5010.8246,N,02051.2388,E,2,8,1.05,161.2,M,41.7,M,0000,0000*5B
$GPGLL,5010.8246,N,02051.2388,E,210035.000,A,D*52
$GPGGA,210036.000,5010.8246,N,02051.2388,E,2,9,1.01,161.2,M,41.7,M,0000,0000*5D
$GPGLL,5010.8246,N,02051.2388,E,210036.000,A,D*51
$GPGGA,210037.000,5010.8246,N,02051.2388,E,2,9,1.01,161.2,M,41.7,M,0000,0000*5C
$GPGLL,5010.8246,N,02051.2388,E,210037.000,A,D*50
$GPGGA,210038.000,5010.8246,N,02051.2388,E,2,9,1.01,161.2,M,41.7,M,0000,0000*53
$GPGLL,5010.8246,N,02051.2388,E,210038.000,A,D*5F
$GPGGA,210039.000,5010.8246,N,02051.2388,E,2,9,1.01,161.2,M,41.7,M,0000,0000*52
$GPGLL,5010.8246,N,02051.2388,E,210039.000,A,D*5E
$GPGGA,210040.000,5010.8246,N,02051.2388,E,2,9,1.01,161.2,M,41.7,M,0000,0000*5C
$GPGLL,5010.8246,N,02051.2388,E,210040.000,A,D*50
$GPGGA,210041.000,5010.8246,N,02051.2388,E,2,9,1.01,161.2,M,41.7,M,0000,0000*5D
$GPGLL,5010.8246,N,02051.2388,E,210041.000,A,D*51
$GPGGA,210042.000,5010.8246,N,02051.2388,E,2,9,1.01,161.2,M,41.7,M,0000,0000*5E
$GPGLL,5010.8246,N,02051.2388,E,210042.000,A,D*52
$GPGGA,210043.000,5010.8246,N,02051.2388,E,2,9,1.01,161.2,M,41.7,M,0000,0000*5F
$GPGLL,5010.8246,N,02051.2388,E,210043.000,A,D*53
$GPGGA,210044.000,5010.8246,N,02051.2388,E,2,9,1.01,161.2,M,41.7,M,0000,0000*58
$GPGLL,5010.8246,N,02051.2388,E,210044.000,A,D*54
$GPGGA,210045.000,5010.8246,N,02051.2388,E,2,9,1.01,161.2,M,41.7,M,0000,0000*59
$GPGLL,5010.8246,N,02051.2388,E,210045.000,A,D*55
$GPGGA,210046.000,5010.8246,N,02051.2388,E,2,8,1.05,161.2,M,41.7,M,0000,0000*5F
$GPGLL,5010.8246,N,02051.2388,E,210046.000,A,D*56
$GPGGA,210047.000,5010.8246,N,02051.2388,E,2,8,1.05,161.2,M,41.7,M,0000,0000*5E
$GPGLL,5010.8246,N,02051.2388,E,210047.000,A,D*57
