$GPGGA,211040.000,5010.8237,N,02051.2384,E,2,8,1.02,162.7,M,41.7,M,0000,0000*53
$GPGLL,5010.8237,N,02051.2384,E,211040.000,A,D*5B
$GPGGA,211041.000,5010.8237,N,02051.2384,E,2,8,1.02,162.7,M,41.7,M,0000,0000*52
$GPGLL,5010.8237,N,02051.2384,E,211041.000,A,D*5A
$GPGGA,211042.000,5010.8237,N,02051.2384,E,2,8,1.02,162.7,M,41.7,M,0000,0000*51
$GPGLL,5010.8237,N,02051.2384,E,211042.000,A,D*59
$GPGGA,211043.000,5010.8237,N,02051.2384,E,2,8,1.02,162.7,M,41.7,M,0000,0000*50
$GPGLL,5010.8237,N,02051.2384,E,211043.000,A,D*58
$GPGGA,211044.000,5010.8237,N,02051.2384,E,2,8,1.02,162.7,M,41.7,M,0000,0000*57
$GPGLL,5010.8237,N,02051.2384,E,211044.000,A,D*5F
$GPGGA,211045.000,5010.8237,N,02051.2384,E,2,8,1.02,162.7,M,41.7,M,0000,0000*56
$GPGLL,5010.8237,N,02051.2384,E,211045.000,A,D*5E
$GPGGA,211046.000,5010.8237,N,02051.2384,E,2,8,1.02,162.8,M,41.7,M,0000,0000*5A
$GPGLL,5010.8237,N,02051.2384,E,211046.000,A,D*5D
$GPGGA,211047.000,5010.8237,N,02051.2384,E,2,8,1.02,162.8,M,41.7,M,0000,0000*5B
$GPGLL,5010.8237,N,02051.2384,E,211047.000,A,D*5C
$GPGGA,211048.000,5010.8236,N,02051.2384,E,2,8,1.02,162.8,M,41.7,M,0000,0000*55
$GPGLL,5010.8236,N,02051.2384,E,211048.000,A,D*52
$GPGGA,211049.000,5010.8236,N,02051.2384,E,2,8,1.02,162.8,M,41.7,M,0000,0000*54
$GPGLL,5010.8236,N,02051.2384,E,211049.000,A,D*53
$GPGGA,211050.000,5010.8236,N,02051.2384,E,2,8,1.02,162.8,M,41.7,M,0000,0000*5C
$GPGLL,5010.8236,N,02051.2384,E,211050.000,A,D*5B
$GPGGA,211051.000,5010.8236,N,02051.2384,E,2,8,1.02,162.8,M,41.7,M,0000,0000*5D
$GPGLL,5010.8236,N,02051.2384,E,211051.000,A,D*5A
$GPGGA,211052.000,5010.8236,N,02051.2384,E,2,8,1.02,162.8,M,41.7,M,0000,0000*5E
$GPGLL,5010.8236,N,02051.2384,E,211052.000,A,D*59
$GPGGA,211053.000,5010.8236,N,02051.2384,E,2,8,1.02,162.8,M,41.7,M,0000,0000*5F
$GPGLL,5010.8236,N,02051.2384,E,211053.000,A,D*58
$GPGGA,211054.000,5010.8236,N,02051.2384,E,2,8,1.02,162.8,M,41.7,M,0000,0000*58
$GPGLL,5010.8236,N,02051.2384,E,211054.000,A,D*5F
$GPGGA,211055.000,5010.8236,N,02051.2384,E,2,8,1.02,162.8,M,41.7,M,0000,0000*59
$GPGLL,5010.8236,N,02051.2384,E,211055.000,A,D*5E
$GPGGA,211056.000,5010.8236,N,02051.2384,E,2,8,1.02,162.8,M,41.7,M,0000,0000*5A
$GPGLL,5010.8236,N,02051.2384,E,211056.000,A,D*5D
$GPGGA,211057.000,5010.8236,N,02051.2384,E,2,8,1.02,162.8,M,41.7,M,0000,0000*5B
$GPGLL,5010.8236,N,02051.2384,E,211057.000,A,D*5C
$GPGGA,211058.000,5010.8236,N,02051.2384,E,2,8,1.02,162.8,M,41.7,M,0000,0000*54
$GPGLL,5010.8236,N,02051.2384,E,211058.000,A,D*53
$GPGGA,211059.000,5010.8236,N,02051.2384,E,2,8,1.02,162.8,M,41.7,M,0000,0000*55
$GPGLL,5010.8236,N,02051.2384,E,211059.000,A,D*52
$GPGGA,211100.000,5010.8236,N,02051.2384,E,2,8,1.02,162.8,M,41.7,M,0000,0000*58
$GPGLL,5010.8236,N,02051.2384,E,211100.000,A,D*5F
$GPGGA,211101.000,5010.8236,N,02051.2384,E,2,8,1.02,162.8,M,41.7,M,0000,0000*59
$GPGLL,5010.8236,N,02051.2384,E,211101.000,A,D*5E
$GPGGA,211102.000,5010.8236,N,02051.2384,E,2,7,1.07,162.8,M,41.7,M,0000,0000*50
$GPGLL,5010.8236,N,02051.2384,E,211102.000,A,D*5D
$GPGGA,211103.000,5010.8236,N,02051.2384,E,2,7,1.07,162.8,M,41.7,M,0000,0000*51
$GPGLL,5010.8236,N,02051.2384,E,211103.000,A,D*5C
$GPGGA,211104.000,5010.8236,N,02051.2384,E,2,7,1.07,162.8,M,41.7,M,0000,0000*56
$GPGLL,5010.8236,N,02051.2384,E,211104.000,A,D*5B
$GPGGA,211105.000,5010.8235,N,02051.2384,E,2,7,1.07,162.8,M,41.7,M,0000,0000*54
$GPGLL,5010.8235,N,02051.2384,E,211105.000,A,D*59
$GPGGA,211106.000,5010.8235,N,02051.2384,E,2,7,1.07,162.8,M,41.7,M,0000,0000*57
$GPGLL,5010.8235,N,02051.2384,E,211106.000,A,D*5A
$GPGGA,211107.000,5010.8235,N,02051.2384,E,2,7,1.07,162.8,M,41.7,M,0000,0000*56
$GPGLL,5010.8235,N,02051.2384,E,211107.000,A,D*5B
$GPGGA,211108.000,5010.8235,N,02051.2384,E,2,7,1.07,162.8,M,41.7,M,0000,0000*59
$GPGLL,5010.8235,N,02051.2384,E,211108.000,A,D*54
$GPGGA,211109.000,5010.8235,N,02051.2384,E,2,7,1.07,162.8,M,41.7,M,0000,0000*58
$GPGLL,5010.8235,N,02051.2384,E,211109.000,A,D*55
$GPGGA,211110.000,5010.8235,N,02051.2384,E,2,7,1.07,162.8,M,41.7,M,0000,0000*50
$GPGLL,5010.8235,N,02051.2384,E,211110.000,A,D*5D
$GPGGA,211111.000,5010.8235,N,02051.2384,E,2,7,1.07,162.8,M,41.7,M,0000,0000*51
$GPGLL,5010.8235,N,02051.2384,E,211111.000,A,D*5C
$GPGGA,211112.000,5010.8235,N,02051.2384,E,2,7,1.07,162.8,M,41.7,M,0000,0000*52
$GPGLL,5010.8235,N,02051.2384,E,211112.000,A,D*5F
$GPRMC,211112.000,A,5010.8235,N,02051.2384,E,0.01,2.62,290304,,,D*63
$GPGGA,211113.000,5010.8235,N,02051.2384,E,2,7,1.07,162.8,M,41.7,M,0000,0000*53
$GPGLL,5010.8235,N,02051.2384,E,211113.000,A,D*5E
$GPGGA,211114.000,5010.8235,N,02051.2384,E,2,7,1.07,162.8,M,41.7,M,0000,0000*54
$GPGLL,5010.8235,N,02051.2384,E,211114.000,A,D*59
$GPGGA,211115.000,5010.8235,N,02051.2384,E,2,7,1.07,162.8,M,41.7,M,0000,0000*55
$GPGLL,5010.8235,N,02051.2384,E,211115.000,A,D*58
$GPRMC,211115.000,A,5010.8235,N,02051.2384,E,0.02,2.62,290304,,,D*67
$GPVTG,2.62,T,,M,0.02,N,0.04,K,D*38
$GPGGA,211116.000,5010.8235,N,02051.2384,E,2,7,1.07,162.8,M,41.7,M,0000,0000*56
$GPGLL,5010.8235,N,02051.2384,E,211116.000,A,D*5B
$GPVTG,2.62,T,,M,0.02,N,0.04,K,D*38
$GPGGA,211117.000,5010.8235,N,02051.2384,E,2,7,1.07,162.8,M,41.7,M,0000,0000*57
$GPGLL,5010.8235,N,02051.2384,E,211117.000,A,D*5A
$GPGSA,A,3,26,28,29,25,18,31,20,,,,,,2.46,1.07,2.21*0E
$GPVTG,2.62,T,,M,0.02,N,0.04,K,D*38
$GPGGA,211118.000,5010.8235,N,02051.2384,E,2,7,1.07,162.8,M,41.7,M,0000,0000*58
$GPGLL,5010.8235,N,02051.2384,E,211118.000,A,D*55
$GPGSA,A,3,26,28,29,25,18,31,20,,,,,,2.46,1.07,2.21*0E
$GPRMC,211118.000,A,5010.8235,N,02051.2384,E,0.01,2.62,290304,,,D*69
$GPVTG,2.62,T,,M,0.01,N,0.01,K,D*3E
$GPGGA,211119.000,5010.8235,N,02051.2384,E,2,7,1.07,162.8,M,41.7,M,0000,0000*59
$GPGLL,5010.8235,N,02051.2384,E,211119.000,A,D*54
$GPGSA,A,3,26,28,29,25,18,31,20,,,,,,2.46,1.07,2.21*0E
$GPVTG,2.62,T,,M,0.03,N,0.06,K,D*3B
$GPGGA,211120.000,5010.8235,N,02051.2384,E,2,7,1.07,162.8,M,41.7,M,0000,0000*53
$GPGLL,5010.8235,N,02051.2384,E,211120.000,A,D*5E
$GPGSA,A,3,26,28,29,25,18,31,20,,,,,,2.45,1.07,2.21*0D
$GPVTG,2.62,T,,M,0.02,N,0.04,K,D*38
$GPGGA,211121.000,5010.8235,N,02051.2384,E,2,7,1.07,162.8,M,41.7,M,0000,0000*52
$GPGLL,5010.8235,N,02051.2384,E,211121.000,A,D*5F
$GPGSA,A,3,26,28,29,25,18,31,20,,,,,,2.46,1.07,2.21*0E
$GPRMC,211121.000,A,5010.8235,N,02051.2384,E,0.01,2.62,290304,,,D*63
$GPVTG,2.62,T,,M,0.01,N,0.02,K,D*3D
$GPGGA,211122.000,5010.8235,N,02051.2384,E,2,7,1.07,162.8,M,41.7,M,0000,0000*51
$GPGLL,5010.8235,N,02051.2384,E,211122.000,A,D*5C
$GPGSA,A,3,26,28,29,25,18,31,20,,,,,,2.45,1.07,2.21*0D
$GPGSV,4,1,13,29,69,063,25,18,50,196,36,26,44,299,24,31,39,259,35*7F
$GPGSV,4,2,13,25,33,140,40,28,32,230,33,36,32,176,37,05,31,081,*7F
$GPGSV,4,3,13,20,20,045,25,16,18,305,16,04,02,318,23,11,01,041,*7C
$GPGSV,4,4,13,09,01,348,15*48
$GLGSV,3,1,09,69,75,078,,84,69,113,,70,36,201,,85,29,317,*6E
$GLGSV,3,2,09,68,25,036,,76,12,321,,83,11,129,,77,07,012,*66
$GLGSV,3,3,09,86,02,311,*53
$GPVTG,2.62,T,,M,0.02,N,0.04,K,D*38
$GPZDA,211122.000,29,03,2004,,*5B
$GPGGA,211123.000,5010.8235,N,02051.2384,E,2,7,1.07,162.8,M,41.7,M,0000,0000*50
$GPGLL,5010.8235,N,02051.2384,E,211123.000,A,D*5D
$GPGSA,A,3,26,28,29,25,18,31,20,,,,,,2.45,1.07,2.21*0D
$GPGSV,4,1,13,29,69,063,25,18,50,196,37,26,44,299,24,31,39,259,35*7E
$GPGSV,4,2,13,25,33,140,40,28,32,230,33,36,32,176,37,05,31,081,*7F
$GPGSV,4,3,13,20,20,045,26,16,18,305,15,04,02,318,23,11,01,041,*7C
$GPGSV,4,4,13,09,01,348,16*4B
$GLGSV,3,1,09,69,75,078,,84,69,113,,70,36,201,,85,29,317,*6E
$GLGSV,3,2,09,68,25,036,,76,12,321,,83,11,129,,77,07,012,*66
$GLGSV,3,3,09,86,02,311,*53
$GPVTG,2.62,T,,M,0.02,N,0.03,K,D*3F
$GPGGA,211124.000,5010.8235,N,02051.2384,E,2,7,1.07,162.8,M,41.7,M,0000,0000*57
$GPGLL,5010.8235,N,02051.2384,E,211124.000,A,D*5A
$GPGSA,A,3,26,28,29,25,18,31,20,,,,,,2.45,1.07,2.21*0D
$GPGSV,4,1,13,29,69,063,25,18,50,196,37,26,44,299,24,31,39,259,35*7E
$GPGSV,4,2,13,25,33,140,40,28,32,230,33,36,32,176,37,05,31,081,*7F
$GPGSV,4,3,13,20,20,045,26,16,18,305,15,04,02,318,23,11,01,041,*7C
$GPGSV,4,4,13,09,01,348,15*48
$GLGSV,3,1,09,69,75,078,,84,69,113,,70,36,201,,85,29,317,*6E
$GLGSV,3,2,09,68,25,036,,76,12,321,,83,11,129,,77,07,012,*66
$GLGSV,3,3,09,86,02,311,*53
$GPRMC,211124.000,A,5010.8235,N,02051.2384,E,0.02,2.62,290304,,,D*65
$GPVTG,2.62,T,,M,0.02,N,0.03,K,D*3F
$GPZDA,211124.000,29,03,2004,,*5D
$GPGGA,211125.000,5010.8235,N,02051.2384,E,2,7,1.07,162.8,M,41.7,M,0000,0000*56
$GPGLL,5010.8235,N,02051.2384,E,211125.000,A,D*5B
$GPGSA,A,3,26,28,29,25,18,31,20,,,,,,2.45,1.07,2.21*0D
$GPGSV,4,1,13,29,69,063,25,18,50,196,37,26,44,299,24,31,39,259,35*7E
$GPGSV,4,2,13,25,33,140,40,28,32,230,33,36,32,176,38,05,31,081,*70
$GPGSV,4,3,13,20,20,044,26,16,18,305,15,04,02,318,23,11,01,041,*7D
$GPGSV,4,4,13,09,01,348,15*48
$GLGSV,3,1,09,69,75,078,,84,69,113,,70,36,201,,85,29,317,*6E
$GLGSV,3,2,09,68,25,036,,76,12,321,,83,11,129,,77,07,012,*66
$GLGSV,3,3,09,86,02,311,*53
$GPVTG,2.62,T,,M,0.02,N,0.03,K,D*3F
$GPGGA,211126.000,5010.8235,N,02051.2384,E,2,7,1.07,162.8,M,41.7,M,0000,0000*55
$GPGLL,5010.8235,N,02051.2384,E,211126.000,A,D*58
$GPGSA,A,3,26,28,29,25,18,31,20,,,,,,2.45,1.07,2.21*0D
$GPGSV,4,1,13,29,69,063,24,18,50,196,37,26,44,299,24,31,39,259,35*7F
$GPGSV,4,2,13,25,33,140,40,28,32,230,33,36,32,176,38,05,31,081,*70
$GPGSV,4,3,13,20,20,044,27,16,18,305,15,04,02,318,22,11,01,041,*7D
$GPGSV,4,4,13,09,01,348,16*4B
$GLGSV,3,1,09,69,75,078,,84,69,113,,70,36,201,,85,29,317,*6E
$GLGSV,3,2,09,68,25,036,,76,12,321,,83,11,129,,77,07,012,*66
$GLGSV,3,3,09,86,02,311,*53
$GPVTG,2.62,T,,M,0.02,N,0.03,K,D*3F
$GPZDA,211126.000,29,03,2004,,*5F
$GPGGA,211127.000,5010.8235,N,02051.2384,E,2,7,1.07,162.8,M,41.7,M,0000,0000*54
$GPGLL,5010.8235,N,02051.2384,E,211127.000,A,D*59
$GPGSA,A,3,26,28,29,25,18,31,20,,,,,,2.45,1.07,2.21*0D
$GPGSV,4,1,13,29,69,063,23,18,50,196,37,26,44,299,24,31,39,259,35*78
$GPGSV,4,2,13,25,33,140,40,28,32,230,33,36,32,176,38,05,31,081,*70
$GPGSV,4,3,13,20,20,044,27,16,18,305,14,04,02,318,22,11,01,041,*7C
$GPGSV,4,4,13,09,01,348,16*4B
$GLGSV,3,1,09,69,75,078,,84,69,113,,70,36,201,,85,29,317,*6E
$GLGSV,3,2,09,68,25,036,,76,12,321,,83,11,129,,77,07,012,*66
$GLGSV,3,3,09,86,02,311,*53
$GPRMC,211127.000,A,5010.8235,N,02051.2384,E,0.02,2.62,290304,,,D*66
$GPVTG,2.62,T,,M,0.02,N,0.03,K,D*3F
$GPGGA,211128.000,5010.8235,N,02051.2384,E,2,7,1.07,162.8,M,41.7,M,0000,0000*5B
$GPGLL,5010.8235,N,02051.2384,E,211128.000,A,D*56
$GPGSA,A,3,26,28,29,25,18,31,20,,,,,,2.45,1.07,2.21*0D
$GPGSV,4,1,13,29,69,063,22,18,50,196,37,26,44,299,24,31,39,259,35*79
$GPGSV,4,2,13,25,33,140,40,28,32,230,33,36,32,176,38,05,31,081,*70
$GPGSV,4,3,13,20,20,044,27,16,18,305,14,04,02,318,22,11,01,041,*7C
$GPGSV,4,4,13,09,01,348,16*4B
$GLGSV,3,1,09,69,75,078,,84,69,113,,70,36,201,,85,29,317,*6E
$GLGSV,3,2,09,68,25,036,,76,12,321,,83,11,129,,77,07,012,*66
$GLGSV,3,3,09,86,02,311,*53
$GPVTG,2.62,T,,M,0.03,N,0.06,K,D*3B
$GPZDA,211128.000,29,03,2004,,*51
$GPGGA,211129.000,5010.8235,N,02051.2384,E,2,7,1.07,162.8,M,41.7,M,0000,0000*5A
$GPGLL,5010.8235,N,02051.2384,E,211129.000,A,D*57
$GPGSA,A,3,26,28,29,25,18,31,20,,,,,,2.45,1.07,2.21*0D
$GPGSV,4,1,13,29,69,063,21,18,50,196,37,26,44,299,24,31,39,259,35*7A
$GPGSV,4,2,13,25,33,140,40,28,32,230,33,36,32,176,38,05,31,081,*70
$GPGSV,4,3,13,20,20,044,27,16,18,305,14,04,02,318,21,11,01,041,*7F
$GPGSV,4,4,13,09,01,348,16*4B
$GLGSV,3,1,09,69,75,078,,84,69,113,,70,36,201,,85,29,317,*6E
$GLGSV,3,2,09,68,25,036,,76,12,321,,83,11,129,,77,07,012,*66
$GLGSV,3,3,09,86,02,311,*53
$GPVTG,2.62,T,,M,0.02,N,0.05,K,D*39
$GPGGA,211130.000,5010.8235,N,02051.2384,E,2,7,1.07,162.8,M,41.7,M,0000,0000*52
$GPGLL,5010.8235,N,02051.2384,E,211130.000,A,D*5F
$GPGSA,A,3,26,28,29,25,18,31,20,,,,,,2.45,1.07,2.21*0D
$GPGSV,4,1,13,29,69,063,20,18,50,196,37,26,44,299,23,31,39,259,35*7C
$GPGSV,4,2,13,25,33,140,40,28,32,230,33,36,32,176,38,05,31,081,*70
$GPGSV,4,3,13,20,20,044,27,16,18,305,13,04,02,318,21,11,01,041,*78
$GPGSV,4,4,13,09,01,348,16*4B
$GLGSV,3,1,09,69,75,078,,84,69,113,,70,36,201,,85,29,317,*6E
$GLGSV,3,2,09,68,25,036,,76,12,321,,83,11,129,,77,07,012,*66
$GLGSV,3,3,09,86,02,311,*53
$GPRMC,211130.000,A,5010.8235,N,02051.2384,E,0.01,2.62,290304,,,D*63
$GPVTG,2.62,T,,M,0.01,N,0.02,K,D*3D
$GPZDA,211130.000,29,03,2004,,*58
$GPGGA,211131.000,5010.8235,N,02051.2384,E,2,7,1.07,162.8,M,41.7,M,0000,0000*53
$GPGLL,5010.8235,N,02051.2384,E,211131.000,A,D*5E
$GPGSA,A,3,26,28,29,25,18,31,20,,,,,,2.45,1.07,2.21*0D
$GPGSV,4,1,13,29,69,063,19,18,50,196,37,26,44,299,23,31,39,259,35*76
$GPGSV,4,2,13,25,33,140,40,28,32,230,32,36,32,176,38,05,31,081,*71
$GPGSV,4,3,13,20,20,044,27,16,18,305,13,04,02,318,21,11,01,041,*78
$GPGSV,4,4,13,09,01,348,16*4B
$GLGSV,3,1,09,69,75,078,,84,69,113,,70,36,201,,85,29,317,*6E
$GLGSV,3,2,09,68,25,036,,76,12,321,,83,11,129,,77,07,012,*66
$GLGSV,3,3,09,86,02,311,*53
$GPVTG,2.62,T,,M,0.04,N,0.07,K,D*3D
$GPGGA,211132.000,5010.8235,N,02051.2384,E,2,7,1.07,162.8,M,41.7,M,0000,0000*50
$GPGLL,5010.8235,N,02051.2384,E,211132.000,A,D*5D
$GPGSA,A,3,26,28,29,25,18,31,20,,,,,,2.45,1.07,2.21*0D
$GPGSV,4,1,13,29,69,063,18,18,50,196,37,26,44,299,23,31,39,259,35*77
$GPGSV,4,2,13,25,33,140,40,28,32,230,31,36,32,176,38,05,31,081,*72
$GPGSV,4,3,13,20,20,044,27,16,18,305,,04,02,318,21,11,01,041,*7A
$GPGSV,4,4,13,09,01,348,15*48
$GLGSV,3,1,09,69,75,078,,84,69,113,,70,36,201,,85,29,317,*6E
$GLGSV,3,2,09,68,25,036,,76,12,321,,83,11,129,,77,07,012,*66
$GLGSV,3,3,09,86,02,311,*53
$GPVTG,2.62,T,,M,0.01,N,0.02,K,D*3D
$GPZDA,211132.000,29,03,2004,,*5A
$GPGGA,211133.000,5010.8235,N,02051.2383,E,2,7,1.07,162.8,M,41.7,M,0000,0000*56
$GPGLL,5010.8235,N,02051.2383,E,211133.000,A,D*5B
$GPGSA,A,3,26,28,29,25,18,31,20,,,,,,2.45,1.07,2.20*0C
$GPGSV,4,1,13,29,69,063,17,18,50,196,37,26,44,299,22,31,39,259,35*79
$GPGSV,4,2,13,25,33,140,40,36,32,176,37,28,31,230,31,05,31,081,*7E
$GPGSV,4,3,13,20,20,044,27,16,18,305,,04,02,318,21,11,01,041,*7A
$GPGSV,4,4,13,09,01,348,15*48
$GLGSV,3,1,09,69,75,078,,84,69,113,,70,36,201,,85,29,317,*6E
$GLGSV,3,2,09,68,25,036,,76,12,321,,83,11,129,,77,07,012,*66
$GLGSV,3,3,09,86,02,311,*53
$GPRMC,211133.000,A,5010.8235,N,02051.2383,E,0.03,2.62,290304,,,D*65
$GPVTG,2.62,T,,M,0.03,N,0.06,K,D*3B
$GPGGA,211134.000,5010.8235,N,02051.2383,E,2,7,1.07,162.8,M,41.7,M,0000,0000*51
$GPGLL,5010.8235,N,02051.2383,E,211134.000,A,D*5C
$GPGSA,A,3,26,28,29,25,18,31,20,,,,,,2.45,1.07,2.20*0C
$GPGSV,4,1,13,29,68,064,17,18,50,196,37,26,44,299,21,31,39,259,35*7C
$GPGSV,4,2,13,25,33,140,40,36,32,176,37,28,31,230,31,05,31,081,*7E
$GPGSV,4,3,13,20,20,044,27,16,18,305,,04,02,318,21,11,01,041,*7A
$GPGSV,4,4,13,09,01,348,15*48
$GLGSV,3,1,09,69,75,078,,84,69,113,,70,36,201,,85,29,317,*6E
$GLGSV,3,2,09,68,25,036,,76,12,321,,83,11,129,,77,07,012,*66
$GLGSV,3,3,09,86,02,311,*53
$GPVTG,2.62,T,,M,0.02,N,0.04,K,D*38
$GPZDA,211134.000,29,03,2004,,*5C
$GPGGA,211135.000,5010.8235,N,02051.2383,E,2,7,1.07,162.8,M,41.7,M,0000,0000*50
$GPGLL,5010.8235,N,02051.2383,E,211135.000,A,D*5D
$GPGSA,A,3,26,28,29,25,18,31,20,,,,,,2.45,1.07,2.20*0C
$GPGSV,4,1,13,29,68,064,17,18,50,196,37,26,44,299,21,31,39,259,35*7C
$GPGSV,4,2,13,25,33,140,40,36,32,176,37,28,31,230,31,05,31,081,*7E
$GPGSV,4,3,13,20,20,044,27,16,18,305,,04,02,318,20,11,01,041,*7B
$GPGSV,4,4,13,09,01,348,15*48
$GLGSV,3,1,09,69,75,078,,84,69,113,,70,36,201,,85,29,317,*6E
$GLGSV,3,2,09,68,25,036,,76,12,321,,83,11,129,,77,07,012,*66
$GLGSV,3,3,09,86,02,311,*53
$GPVTG,2.62,T,,M,0.01,N,0.02,K,D*3D
$GPGGA,211136.000,5010.8235,N,02051.2383,E,2,7,1.07,162.8,M,41.7,M,0000,0000*53
$GPGLL,5010.8235,N,02051.2383,E,211136.000,A,D*5E
$GPGSA,A,3,26,28,29,25,18,31,20,,,,,,2.45,1.07,2.20*0C
$GPGSV,4,1,13,29,68,064,17,18,50,196,37,26,44,299,21,31,39,258,35*7D
$GPGSV,4,2,13,25,33,140,40,36,32,176,37,28,31,230,31,05,31,081,*7E
$GPGSV,4,3,13,20,20,044,27,16,18,305,,04,02,318,20,11,01,041,*7B
$GPGSV,4,4,13,09,01,348,15*48
$GLGSV,3,1,09,69,75,078,,84,69,113,,70,36,201,,85,29,317,*6E
$GLGSV,3,2,09,68,25,036,,76,12,321,,83,11,129,,77,07,012,*66
$GLGSV,3,3,09,86,02,311,*53
$GPRMC,211136.000,A,5010.8235,N,02051.2383,E,0.01,2.62,290304,,,D*62
$GPVTG,2.62,T,,M,0.01,N,0.01,K,D*3E
$GPZDA,211136.000,29,03,2004,,*5E
$GPGGA,211137.000,5010.8235,N,02051.2383,E,2,7,1.07,162.8,M,41.7,M,0000,0000*52
$GPGLL,5010.8235,N,02051.2383,E,211137.000,A,D*5F
$GPGSA,A,3,26,28,29,25,18,31,20,,,,,,2.45,1.07,2.20*0C
$GPGSV,4,1,13,29,68,064,17,18,50,196,37,26,44,299,21,31,39,258,35*7D
$GPGSV,4,2,13,25,33,140,40,36,32,176,37,28,31,230,31,05,31,081,*7E
$GPGSV,4,3,13,20,20,044,26,16,18,305,,04,02,318,20,11,01,041,*7A
$GPGSV,4,4,13,09,01,348,15*48
$GLGSV,3,1,09,69,75,078,,84,69,113,,70,36,201,,85,29,317,*6E
$GLGSV,3,2,09,68,25,036,,76,12,321,,83,11,129,,77,07,012,*66
$GLGSV,3,3,09,86,02,311,*53
$GPVTG,2.62,T,,M,0.02,N,0.03,K,D*3F
$GPGGA,211138.000,5010.8235,N,02051.2383,E,2,7,1.07,162.8,M,41.7,M,0000,0000*5D
$GPGLL,5010.8235,N,02051.2383,E,211138.000,A,D*50
$GPGSA,A,3,26,28,29,25,18,31,20,,,,,,2.45,1.07,2.20*0C
$GPGSV,4,1,13,29,68,064,18,18,50,196,37,26,44,299,21,31,39,258,35*72
$GPGSV,4,2,13,25,33,140,40,36,32,176,37,28,31,230,31,05,31,081,*7E
$GPGSV,4,3,13,20,20,044,27,16,18,305,,04,02,318,20,11,01,041,*7B
$GPGSV,4,4,13,09,01,348,15*48
$GLGSV,3,1,09,69,75,078,,84,69,113,,70,36,201,,85,29,317,*6E
$GLGSV,3,2,09,68,25,036,,76,12,321,,83,11,129,,77,07,012,*66
$GLGSV,3,3,09,86,02,311,*53
$GPVTG,2.62,T,,M,0.03,N,0.06,K,D*3B
$GPZDA,211138.000,29,03,2004,,*50
$GPGGA,211139.000,5010.8235,N,02051.2383,E,2,7,1.07,162.8,M,41.7,M,0000,0000*5C
$GPGLL,5010.8235,N,02051.2383,E,211139.000,A,D*51
$GPGSA,A,3,26,28,29,25,18,31,20,,,,,,2.45,1.07,2.20*0C
$GPGSV,4,1,13,29,68,064,19,18,50,196,37,26,44,299,21,31,39,258,35*73
$GPGSV,4,2,13,25,33,140,40,36,32,176,37,28,31,230,32,05,31,081,*7D
$GPGSV,4,3,13,20,20,044,27,16,18,305,,04,02,318,20,11,01,041,*7B
$GPGSV,4,4,13,09,01,348,15*48
$GLGSV,3,1,09,69,75,078,,84,69,113,,70,36,201,,85,29,317,*6E
$GLGSV,3,2,09,68,25,036,,76,12,321,,83,11,129,,77,07,012,*66
$GLGSV,3,3,09,86,02,311,*53
$GPRMC,211139.000,A,5010.8235,N,02051.2383,E,0.05,2.62,290304,,,D*69
$GPVTG,2.62,T,,M,0.05,N,0.09,K,D*32
$GPGGA,211140.000,5010.8235,N,02051.2383,E,2,7,1.07,162.8,M,41.7,M,0000,0000*52
$GPGLL,5010.8235,N,02051.2383,E,211140.000,A,D*5F
$GPGSA,A,3,26,28,29,25,18,31,20,,,,,,2.45,1.07,2.20*0C
$GPGSV,4,1,13,29,68,064,20,18,50,196,37,26,44,299,22,31,39,258,35*7A
$GPGSV,4,2,13,25,33,140,40,36,32,176,37,28,31,230,32,05,31,081,*7D
$GPGSV,4,3,13,20,20,044,27,16,18,305,,04,02,318,21,11,01,041,*7A
$GPGSV,4,4,13,09,01,348,16*4B
$GLGSV,3,1,09,69,75,078,,84,69,113,,70,36,201,,85,29,317,*6E
$GLGSV,3,2,09,68,25,036,,76,12,321,,83,11,129,,77,07,012,*66
$GLGSV,3,3,09,86,02,311,*53
$GPVTG,2.62,T,,M,0.01,N,0.02,K,D*3D
$GPZDA,211140.000,29,03,2004,,*5F
$GPGGA,211141.000,5010.8235,N,02051.2383,E,2,7,1.07,162.8,M,41.7,M,0000,0000*53
$GPGLL,5010.8235,N,02051.2383,E,211141.000,A,D*5E
$GPGSA,A,3,26,28,29,25,18,31,20,,,,,,2.45,1.07,2.20*0C
$GPGSV,4,1,13,29,68,064,21,18,50,196,37,26,44,299,22,31,39,258,36*78
$GPGSV,4,2,13,25,33,140,41,36,32,176,37,28,31,230,33,05,31,081,*7D
$GPGSV,4,3,13,20,20,044,27,16,18,305,,04,02,318,21,11,01,041,*7A
$GPGSV,4,4,13,09,01,348,17*4A
$GLGSV,3,1,09,69,75,078,,84,69,113,,70,36,201,,85,29,317,*6E
$GLGSV,3,2,09,68,25,036,,76,12,321,,83,11,129,,77,07,012,*66
$GLGSV,3,3,09,86,02,311,*53
$GPVTG,2.62,T,,M,0.03,N,0.06,K,D*3B
$GPGGA,211142.000,5010.8235,N,02051.2383,E,2,7,1.07,162.8,M,41.7,M,0000,0000*50
$GPGLL,5010.8235,N,02051.2383,E,211142.000,A,D*5D
$GPGSA,A,3,26,28,29,25,18,31,20,,,,,,2.45,1.07,2.20*0C
$GPGSV,4,1,13,29,68,064,21,18,50,196,37,26,44,299,22,31,39,258,36*78
$GPGSV,4,2,13,25,33,140,41,36,32,176,38,28,31,230,33,05,31,081,*72
$GPGSV,4,3,13,20,20,044,27,16,18,305,,04,02,318,21,11,01,041,*7A
$GPGSV,4,4,13,09,01,348,17*4A
$GLGSV,3,1,09,69,75,078,,84,69,113,,70,36,201,,85,29,317,*6E
$GLGSV,3,2,09,68,25,036,,76,12,321,,83,11,129,,77,07,012,*66
$GLGSV,3,3,09,86,02,311,*53
$GPRMC,211142.000,A,5010.8235,N,02051.2383,E,0.01,2.62,290304,,,D*61
$GPVTG,2.62,T,,M,0.01,N,0.02,K,D*3D
$GPZDA,211142.000,29,03,2004,,*5D
$GPGGA,211143.000,5010.8235,N,02051.2383,E,2,7,1.07,162.8,M,41.7,M,0000,0000*51
$GPGLL,5010.8235,N,02051.2383,E,211143.000,A,D*5C
$GPGSA,A,3,26,28,29,25,18,31,20,,,,,,2.45,1.07,2.20*0C
$GPGSV,4,1,13,29,68,064,22,18,50,196,37,26,44,299,22,31,39,258,36*7B
$GPGSV,4,2,13,25,33,140,41,36,32,176,38,28,31,230,33,05,31,081,*72
$GPGSV,4,3,13,20,20,044,27,16,18,305,,04,02,318,21,11,01,041,*7A
$GPGSV,4,4,13,09,01,348,17*4A
$GLGSV,3,1,09,69,75,078,,84,69,113,,70,36,201,,85,29,317,*6E
$GLGSV,3,2,09,68,25,036,,76,12,321,,83,11,129,,77,07,012,*66
$GLGSV,3,3,09,86,02,311,*53
$GPVTG,2.62,T,,M,0.01,N,0.03,K,D*3C
$GPGGA,211144.000,5010.8235,N,02051.2383,E,2,7,1.07,162.8,M,41.7,M,0000,0000*56
$GPGLL,5010.8235,N,02051.2383,E,211144.000,A,D*5B
$GPGSA,A,3,26,28,29,25,18,31,20,,,,,,2.45,1.07,2.20*0C
$GPGSV,4,1,13,29,68,064,21,18,50,196,37,26,44,299,22,31,39,258,36*78
$GPGSV,4,2,13,25,33,140,41,36,32,176,37,28,31,230,33,05,31,081,*7D
$GPGSV,4,3,13,20,20,044,27,16,18,305,,04,02,318,20,11,01,041,*7B
$GPGSV,4,4,13,09,01,348,17*4A
$GLGSV,3,1,09,69,75,078,,84,69,113,,70,36,201,,85,29,317,*6E
$GLGSV,3,2,09,68,25,036,,76,12,321,,83,11,129,,77,07,012,*66
$GLGSV,3,3,09,86,02,311,*53
$GPVTG,2.62,T,,M,0.00,N,0.00,K,D*3E
$GPZDA,211144.000,29,03,2004,,*5B
$GPGGA,211145.000,5010.8235,N,02051.2383,E,2,7,1.07,162.8,M,41.7,M,0000,0000*57
$GPGLL,5010.8235,N,02051.2383,E,211145.000,A,D*5A
$GPGSA,A,3,26,28,29,25,18,31,20,,,,,,2.45,1.07,2.20*0C
$GPGSV,4,1,13,29,68,064,21,18,50,196,37,26,44,299,21,31,39,258,36*7B
$GPGSV,4,2,13,25,33,140,41,36,32,176,37,28,31,230,33,05,31,081,*7D
$GPGSV,4,3,13,20,20,044,27,16,18,305,,04,02,318,20,11,01,041,*7B
$GPGSV,4,4,13,09,01,348,16*4B
$GLGSV,3,1,09,69,75,078,,84,69,113,,70,36,201,,85,29,317,*6E
$GLGSV,3,2,09,68,25,036,,76,12,321,,83,11,129,,77,07,012,*66
$GLGSV,3,3,09,86,02,311,*53
$GPRMC,211145.000,A,5010.8235,N,02051.2383,E,0.00,2.62,290304,,,D*67
$GPVTG,2.62,T,,M,0.00,N,0.00,K,D*3E
$GPGGA,211146.000,5010.8235,N,02051.2383,E,2,7,1.07,162.8,M,41.7,M,0000,0000*54
$GPGLL,5010.8235,N,02051.2383,E,211146.000,A,D*59
$GPGSA,A,3,26,28,29,25,18,31,20,,,,,,2.45,1.07,2.20*0C
$GPGSV,4,1,13,29,68,064,21,18,50,196,37,26,44,299,20,31,39,258,35*79
$GPGSV,4,2,13,25,33,140,40,36,32,176,37,28,31,230,33,05,31,081,*7C
$GPGSV,4,3,13,20,20,044,26,16,18,305,,04,02,318,20,11,01,041,*7A
$GPGSV,4,4,13,09,01,348,16*4B
$GLGSV,3,1,09,69,75,078,,84,69,113,,70,36,201,,85,29,317,*6E
$GLGSV,3,2,09,68,25,036,,76,12,321,,83,11,129,,77,07,012,*66
$GLGSV,3,3,09,86,02,311,*53
$GPVTG,2.62,T,,M,0.01,N,0.02,K,D*3D
$GPZDA,211146.000,29,03,2004,,*59
$GPGGA,211147.000,5010.8235,N,02051.2383,E,2,7,1.07,162.8,M,41.7,M,0000,0000*55
$GPGLL,5010.8235,N,02051.2383,E,211147.000,A,D*58
$GPGSA,A,3,26,28,29,25,18,31,20,,,,,,2.45,1.07,2.20*0C
$GPGSV,4,1,13,29,68,064,21,18,50,196,37,26,44,299,20,31,39,258,35*79
$GPGSV,4,2,13,25,33,140,40,36,32,176,37,28,31,230,33,05,31,081,*7C
$GPGSV,4,3,13,20,20,044,25,16,18,305,,04,02,318,20,11,01,041,*79
$GPGSV,4,4,13,09,01,348,16*4B
$GLGSV,3,1,09,69,75,078,,84,69,113,,70,36,201,,85,29,317,*6E
$GLGSV,3,2,09,68,25,036,,76,12,321,,83,11,129,,77,07,012,*66
$GLGSV,3,3,09,86,02,311,*53
$GPVTG,2.62,T,,M,0.02,N,0.04,K,D*38
$GPGGA,211148.000,5010.8235,N,02051.2383,E,2,7,1.07,162.8,M,41.7,M,0000,0000*5A
$GPGLL,5010.8235,N,02051.2383,E,211148.000,A,D*57
$GPGSA,A,3,26,28,29,25,18,31,20,,,,,,2.44,1.07,2.20*0D
$GPGSV,4,1,13,29,68,064,21,18,50,196,37,26,44,299,20,31,39,258,35*79
$GPGSV,4,2,13,25,33,140,40,36,32,176,37,28,31,230,33,05,31,081,*7C
$GPGSV,4,3,13,20,20,044,25,16,18,305,,04,02,318,19,11,01,041,*73
$GPGSV,4,4,13,09,01,348,16*4B
$GLGSV,3,1,09,69,75,078,,84,69,113,,70,36,201,,85,29,317,*6E
$GLGSV,3,2,09,68,25,036,,76,12,321,,83,11,129,,77,07,012,*66
$GLGSV,3,3,09,86,02,311,*53
$GPRMC,211148.000,A,5010.8235,N,02051.2383,E,0.03,2.62,290304,,,D*69
$GPVTG,2.62,T,,M,0.03,N,0.06,K,D*3B
$GPZDA,211148.000,29,03,2004,,*57
$GPGGA,211149.000,5010.8235,N,02051.2383,E,2,7,1.07,162.8,M,41.7,M,0000,0000*5B
$GPGLL,5010.8235,N,02051.2383,E,211149.000,A,D*56
$GPGSA,A,3,26,28,29,25,18,31,20,,,,,,2.44,1.07,2.20*0D
$GPGSV,4,1,13,29,68,064,21,18,50,196,37,26,44,299,19,31,39,258,35*73
$GPGSV,4,2,13,25,33,140,40,36,32,176,36,28,31,230,33,05,31,081,*7D
$GPGSV,4,3,13,20,20,044,25,16,18,305,,04,02,318,19,11,01,041,*73
$GPGSV,4,4,13,09,01,348,16*4B
$GLGSV,3,1,09,69,75,078,,84,69,113,,70,36,201,,85,29,317,*6E
$GLGSV,3,2,09,68,25,036,,76,12,321,,83,11,129,,77,07,012,*66
$GLGSV,3,3,09,86,02,311,*53
$GPVTG,2.62,T,,M,0.02,N,0.04,K,D*38
$GPGGA,211150.000,5010.8235,N,02051.2383,E,2,7,1.07,162.8,M,41.7,M,0000,0000*53
$GPGLL,5010.8235,N,02051.2383,E,211150.000,A,D*5E
$GPGSA,A,3,26,28,29,25,18,31,20,,,,,,2.44,1.07,2.20*0D
$GPGSV,4,1,13,29,68,064,21,18,50,196,37,26,44,299,18,31,39,258,35*72
$GPGSV,4,2,13,25,33,140,40,36,32,176,36,28,31,230,33,05,31,081,*7D
$GPGSV,4,3,13,20,20,044,24,16,18,305,,04,02,318,19,11,01,041,*72
$GPGSV,4,4,13,09,01,348,16*4B
$GLGSV,3,1,09,69,75,078,,84,69,113,,70,36,201,,85,29,317,*6E
$GLGSV,3,2,09,68,25,036,,76,12,321,,83,11,129,,77,07,012,*66
$GLGSV,3,3,09,86,02,311,*53
$GPVTG,2.62,T,,M,0.01,N,0.03,K,D*3C
$GPZDA,211150.000,29,03,2004,,*5E
$GPGGA,211151.000,5010.8235,N,02051.2383,E,2,7,1.07,162.8,M,41.7,M,0000,0000*52
$GPGLL,5010.8235,N,02051.2383,E,211151.000,A,D*5F
$GPGSA,A,3,26,28,29,25,18,31,20,,,,,,2.44,1.07,2.20*0D
$GPGSV,4,1,13,29,68,064,21,18,50,196,37,26,44,299,18,31,39,258,35*72
$GPGSV,4,2,13,25,33,140,40,36,32,176,37,28,31,230,33,05,31,081,*7C
$GPGSV,4,3,13,20,20,044,24,16,18,305,,04,02,318,19,11,01,041,*72
$GPGSV,4,4,13,09,01,348,16*4B
$GLGSV,3,1,09,69,75,078,,84,69,113,,70,36,201,,85,29,317,*6E
$GLGSV,3,2,09,68,25,036,,76,12,321,,83,11,129,,77,07,012,*66
$GLGSV,3,3,09,86,02,311,*53
$GPRMC,211151.000,A,5010.8235,N,02051.2383,E,0.02,2.62,290304,,,D*60
$GPVTG,2.62,T,,M,0.02,N,0.03,K,D*3F
$GPGGA,211152.000,5010.8235,N,02051.2383,E,2,7,1.07,162.8,M,41.7,M,0000,0000*51
$GPGLL,5010.8235,N,02051.2383,E,211152.000,A,D*5C
$GPGSA,A,3,26,28,29,25,18,31,20,,,,,,2.44,1.07,2.20*0D
$GPGSV,4,1,13,29,68,064,22,18,50,196,37,26,44,299,18,31,39,258,35*71
$GPGSV,4,2,13,25,33,140,40,36,32,176,37,28,31,230,33,05,31,081,*7C
$GPGSV,4,3,13,20,20,044,24,16,18,305,,04,02,318,19,11,01,041,*72
$GPGSV,4,4,13,09,01,348,15*48
$GLGSV,3,1,09,69,75,078,,84,69,113,,70,36,201,,85,29,317,*6E
$GLGSV,3,2,09,68,25,036,,76,12,321,,83,11,129,,77,07,012,*66
$GLGSV,3,3,09,86,02,311,*53
$GPVTG,2.62,T,,M,0.02,N,0.03,K,D*3F
$GPZDA,211152.000,29,03,2004,,*5C
$GPGGA,211153.000,5010.8235,N,02051.2383,E,2,7,1.07,162.8,M,41.7,M,0000,0000*50
$GPGLL,5010.8235,N,02051.2383,E,211153.000,A,D*5D
$GPGSA,A,3,26,28,29,25,18,31,20,,,,,,2.44,1.07,2.20*0D
$GPGSV,4,1,13,29,68,064,22,18,50,196,37,26,44,299,18,31,39,258,35*71
$GPGSV,4,2,13,25,33,140,40,36,32,176,37,28,31,230,34,05,31,081,*7B
$GPGSV,4,3,13,20,20,044,24,16,18,305,,04,02,318,19,11,01,041,*72
$GPGSV,4,4,13,09,01,348,15*48
$GLGSV,3,1,09,69,75,078,,84,69,113,,70,36,201,,85,29,317,*6E
$GLGSV,3,2,09,68,25,036,,76,12,321,,83,11,129,,77,07,012,*66
$GLGSV,3,3,09,86,02,311,*53
$GPVTG,2.62,T,,M,0.02,N,0.04,K,D*38
$GPGGA,211154.000,5010.8235,N,02051.2383,E,2,7,1.07,162.8,M,41.7,M,0000,0000*57
$GPGLL,5010.8235,N,02051.2383,E,211154.000,A,D*5A
$GPGSA,A,3,26,28,29,25,18,31,20,,,,,,2.44,1.07,2.20*0D
$GPGSV,4,1,13,29,68,064,22,18,50,196,36,26,44,299,18,31,39,258,36*73
$GPGSV,4,2,13,25,33,140,40,36,32,176,37,28,31,230,34,05,31,081,*7B
$GPGSV,4,3,13,20,20,044,24,16,18,305,,04,02,318,19,11,01,041,*72
$GPGSV,4,4,13,09,01,348,15*48
$GLGSV,3,1,09,69,75,078,,84,69,113,,70,36,201,,85,29,317,*6E
$GLGSV,3,2,09,68,25,036,,76,12,321,,83,11,129,,77,07,012,*66
$GLGSV,3,3,09,86,02,311,*53
$GPRMC,211154.000,A,5010.8235,N,02051.2383,E,0.04,2.62,290304,,,D*63
$GPVTG,2.62,T,,M,0.04,N,0.07,K,D*3D
$GPZDA,211154.000,29,03,2004,,*5A
$GPGGA,211155.000,5010.8235,N,02051.2383,E,2,7,1.07,162.8,M,41.7,M,0000,0000*56
$GPGLL,5010.8235,N,02051.2383,E,211155.000,A,D*5B
$GPGSA,A,3,26,28,29,25,18,31,20,,,,,,2.44,1.07,2.19*07
$GPGSV,4,1,13,29,68,064,22,18,50,196,36,26,44,299,17,31,39,258,36*7C
$GPGSV,4,2,13,25,33,140,40,36,32,176,38,28,31,230,34,05,31,081,*74
$GPGSV,4,3,13,20,20,044,24,16,18,305,,04,02,318,19,11,01,041,*72
$GPGSV,4,4,13,09,01,348,15*48
$GLGSV,3,1,09,69,75,078,,84,69,113,,70,36,201,,85,29,317,*6E
$GLGSV,3,2,09,68,25,036,,76,12,321,,83,11,129,,77,07,012,*66
$GLGSV,3,3,09,86,02,311,*53
$GPVTG,2.62,T,,M,0.02,N,0.04,K,D*38
$GPGGA,211156.000,5010.8235,N,02051.2383,E,2,7,1.07,162.8,M,41.7,M,0000,0000*55
$GPGLL,5010.8235,N,02051.2383,E,211156.000,A,D*58
$GPGSA,A,3,26,28,29,25,18,31,20,,,,,,2.44,1.07,2.19*07
$GPGSV,4,1,13,29,68,064,21,18,50,196,36,26,44,299,17,31,39,258,36*7F
$GPGSV,4,2,13,25,33,140,40,36,32,176,38,28,31,230,34,05,31,081,*74
$GPGSV,4,3,13,20,20,044,24,16,18,305,,04,02,318,19,11,01,041,*72
$GPGSV,4,4,13,09,01,348,15*48
$GLGSV,3,1,09,69,75,078,,84,69,113,,70,36,201,,85,29,317,*6E
$GLGSV,3,2,09,68,25,036,,76,12,321,,83,11,129,,77,07,012,*66
$GLGSV,3,3,09,86,02,311,*53
$GPVTG,2.62,T,,M,0.03,N,0.06,K,D*3B
$GPZDA,211156.000,29,03,2004,,*58
$GPGGA,211157.000,5010.8236,N,02051.2383,E,2,8,1.02,162.8,M,41.7,M,0000,0000*5D
$GPGLL,5010.8236,N,02051.2383,E,211157.000,A,D*5A
$GPGSA,A,3,26,28,29,25,05,18,31,20,,,,,2.41,1.02,2.18*03
$GPGSV,4,1,13,29,68,064,20,18,50,196,35,26,44,299,17,31,39,258,36*7D
$GPGSV,4,2,13,25,33,140,40,36,32,176,37,28,31,230,34,05,31,081,17*7D
$GPGSV,4,3,13,20,20,044,24,16,18,305,,04,02,318,18,11,01,041,*73
$GPGSV,4,4,13,09,01,348,15*48
$GLGSV,3,1,09,69,75,078,,84,69,113,,70,36,201,,85,29,317,*6E
$GLGSV,3,2,09,68,25,036,,76,12,321,,83,11,129,,77,07,012,*66
$GLGSV,3,3,09,86,02,311,*53
$GPRMC,211157.000,A,5010.8236,N,02051.2383,E,0.02,2.62,290304,,,D*65
$GPVTG,2.62,T,,M,0.02,N,0.03,K,D*3F
$GPGGA,211158.000,5010.8236,N,02051.2383,E,2,8,1.02,162.8,M,41.7,M,0000,0000*52
$GPGLL,5010.8236,N,02051.2383,E,211158.000,A,D*55
$GPGSA,A,3,26,28,29,25,05,18,31,20,,,,,2.41,1.02,2.18*03
$GPGSV,4,1,13,29,68,064,20,18,50,196,35,26,44,299,17,31,39,258,36*7D
$GPGSV,4,2,13,25,33,140,40,36,32,176,37,28,31,230,34,05,31,081,19*73
$GPGSV,4,3,13,20,20,044,23,16,18,305,,04,02,318,18,11,01,041,*74
$GPGSV,4,4,13,09,01,348,15*48
$GLGSV,3,1,09,69,75,078,,84,69,113,,70,36,201,,85,29,317,*6E
$GLGSV,3,2,09,68,25,036,,76,12,321,,83,11,129,,77,07,012,*66
$GLGSV,3,3,09,86,02,311,*53
$GPVTG,2.62,T,,M,0.01,N,0.02,K,D*3D
$GPZDA,211158.000,29,03,2004,,*56
$GPGGA,211159.000,5010.8236,N,02051.2383,E,2,8,1.02,162.8,M,41.7,M,0000,0000*53
$GPGLL,5010.8236,N,02051.2383,E,211159.000,A,D*54
$GPGSA,A,3,26,28,29,25,05,18,31,20,,,,,2.41,1.02,2.18*03
$GPGSV,4,1,13,29,68,064,20,18,50,196,35,26,44,299,17,31,39,258,36*7D
$GPGSV,4,2,13,25,33,140,40,36,32,176,37,28,31,230,34,05,31,081,18*72
$GPGSV,4,3,13,20,20,044,23,16,18,305,,04,02,318,17,11,01,041,*7B
$GPGSV,4,4,13,09,01,348,15*48
$GLGSV,3,1,09,69,75,078,,84,69,113,,70,36,201,,85,29,317,*6E
$GLGSV,3,2,09,68,25,036,,76,12,321,,83,11,129,,77,07,012,*66
$GLGSV,3,3,09,86,02,311,*53
$GPVTG,2.62,T,,M,0.01,N,0.01,K,D*3E
$GPGGA,211200.000,5010.8236,N,02051.2383,E,2,8,1.02,162.8,M,41.7,M,0000,0000*5C
$GPGLL,5010.8236,N,02051.2383,E,211200.000,A,D*5B
$GPGSA,A,3,26,28,29,25,05,18,31,20,,,,,2.41,1.02,2.18*03
$GPGSV,4,1,13,29,68,064,19,18,50,196,34,26,44,299,17,31,39,258,36*76
$GPGSV,4,2,13,25,33,140,40,36,32,176,37,28,31,230,34,05,31,081,19*73
$GPGSV,4,3,13,20,20,044,23,16,18,305,18,04,02,318,16,11,01,041,*73
$GPGSV,4,4,13,09,01,348,15*48
$GLGSV,3,1,09,69,75,078,,84,69,113,,70,36,201,,85,29,317,*6E
$GLGSV,3,2,09,68,25,036,,76,12,321,,83,11,129,,77,07,012,*66
$GLGSV,3,3,09,86,02,311,*53
$GPRMC,211200.000,A,5010.8236,N,02051.2383,E,0.02,2.62,290304,,,D*64
$GPVTG,2.62,T,,M,0.02,N,0.04,K,D*38
$GPZDA,211200.000,29,03,2004,,*58
$GPGGA,211201.000,5010.8236,N,02051.2383,E,2,8,1.02,162.8,M,41.7,M,0000,0000*5D
$GPGLL,5010.8236,N,02051.2383,E,211201.000,A,D*5A
$GPGSA,A,3,26,28,29,25,05,18,31,20,,,,,2.41,1.02,2.18*03
$GPGSV,4,1,13,29,68,064,18,18,50,196,33,26,44,299,17,31,39,258,36*70
$GPGSV,4,2,13,25,33,140,40,36,32,176,37,28,31,230,34,05,31,081,18*72
$GPGSV,4,3,13,20,20,044,22,16,18,305,16,04,02,318,15,11,01,041,*7F
$GPGSV,4,4,13,09,01,348,16*4B
$GLGSV,3,1,09,69,75,078,,84,69,113,,70,36,201,,85,29,317,*6E
$GLGSV,3,2,09,68,25,036,,76,12,321,,83,11,129,,77,07,012,*66
$GLGSV,3,3,09,86,02,311,*53
$GPVTG,2.62,T,,M,0.04,N,0.07,K,D*3D
$GPGGA,211202.000,5010.8236,N,02051.2383,E,2,8,1.02,162.8,M,41.7,M,0000,0000*5E
$GPGLL,5010.8236,N,02051.2383,E,211202.000,A,D*59
$GPGSA,A,3,26,28,29,25,05,18,31,20,,,,,2.41,1.02,2.18*03
$GPGSV,4,1,13,29,68,064,18,18,50,196,33,26,44,299,17,31,39,258,36*70
$GPGSV,4,2,13,25,33,140,40,36,32,176,37,28,31,230,34,05,31,081,18*72
$GPGSV,4,3,13,20,20,044,22,16,18,305,18,04,02,318,15,11,01,041,*71
$GPGSV,4,4,13,09,01,348,16*4B
$GLGSV,3,1,09,69,75,078,,84,69,113,,70,36,201,,85,29,317,*6E
$GLGSV,3,2,09,68,24,036,,76,12,321,,83,11,129,,77,07,012,*67
$GLGSV,3,3,09,86,02,311,*53
$GPVTG,2.62,T,,M,0.03,N,0.05,K,D*38
$GPZDA,211202.000,29,03,2004,,*5A
$GPGGA,211203.000,5010.8236,N,02051.2383,E,2,8,1.02,162.8,M,41.7,M,0000,0000*5F
$GPGLL,5010.8236,N,02051.2383,E,211203.000,A,D*58
$GPGSA,A,3,26,28,29,25,05,18,31,20,,,,,2.41,1.02,2.18*03
$GPGSV,4,1,13,29,68,064,18,18,50,196,33,26,44,299,17,31,39,258,36*70
$GPGSV,4,2,13,25,33,140,40,36,32,176,37,28,31,230,34,05,31,081,18*72
$GPGSV,4,3,13,20,20,044,23,16,18,305,18,04,02,318,15,11,01,041,*70
$GPGSV,4,4,13,09,01,348,16*4B
$GLGSV,3,1,09,69,75,076,,84,69,113,,70,36,201,,85,29,317,*60
$GLGSV,3,2,09,68,24,036,,76,12,321,,83,11,129,,77,07,012,*67
$GLGSV,3,3,09,86,02,311,*53
$GPRMC,211203.000,A,5010.8236,N,02051.2383,E,0.03,2.62,290304,,,D*66
$GPVTG,2.62,T,,M,0.03,N,0.06,K,D*3B
$GPGGA,211204.000,5010.8236,N,02051.2383,E,2,8,1.02,162.8,M,41.7,M,0000,0000*58
$GPGLL,5010.8236,N,02051.2383,E,211204.000,A,D*5F
$GPGSA,A,3,26,28,29,25,05,18,31,20,,,,,2.41,1.02,2.18*03
$GPGSV,4,1,13,29,68,064,18,18,50,196,32,26,44,299,17,31,39,258,36*71
$GPGSV,4,2,13,25,33,140,40,36,32,176,37,28,31,230,34,05,31,081,18*72
$GPGSV,4,3,13,20,20,044,23,16,18,305,18,04,02,318,15,11,01,041,*70
$GPGSV,4,4,13,09,01,348,16*4B
$GLGSV,3,1,09,69,75,076,,84,69,113,,70,37,201,,85,29,317,*61
$GLGSV,3,2,09,68,24,036,,76,12,321,,83,11,129,,77,07,012,*67
$GLGSV,3,3,09,86,02,311,*53
$GPVTG,2.62,T,,M,0.02,N,0.03,K,D*3F
$GPZDA,211204.000,29,03,2004,,*5C
$GPGGA,211205.000,5010.8236,N,02051.2383,E,2,8,1.02,162.8,M,41.7,M,0000,0000*59
$GPGLL,5010.8236,N,02051.2383,E,211205.000,A,D*5E
$GPGSA,A,3,26,28,29,25,05,18,31,20,,,,,2.41,1.02,2.18*03
$GPGSV,4,1,13,29,68,064,17,18,50,196,32,26,44,299,17,31,39,258,36*7E
$GPGSV,4,2,13,25,33,140,40,36,32,176,37,28,31,230,34,05,31,081,18*72
$GPGSV,4,3,13,20,20,044,23,16,18,305,18,04,02,318,16,11,01,041,*73
$GPGSV,4,4,13,09,01,348,16*4B
$GLGSV,3,1,09,69,75,076,,84,69,113,,70,37,201,,85,29,317,*61
$GLGSV,3,2,09,68,24,036,,76,12,321,,83,11,129,,77,07,012,*67
$GLGSV,3,3,09,86,02,311,*53
$GPVTG,2.62,T,,M,0.01,N,0.02,K,D*3D
$GPGGA,211206.000,5010.8236,N,02051.2383,E,2,8,1.02,162.8,M,41.7,M,0000,0000*5A
$GPGLL,5010.8236,N,02051.2383,E,211206.000,A,D*5D
$GPGSA,A,3,26,28,29,25,05,18,31,20,,,,,2.41,1.02,2.18*03
$GPGSV,4,1,13,29,68,064,17,18,50,196,32,26,44,299,17,31,39,258,36*7E
$GPGSV,4,2,13,25,33,140,40,36,32,176,37,28,31,230,34,05,31,081,18*72
$GPGSV,4,3,13,20,20,044,23,16,18,305,18,04,02,318,16,11,01,041,*73
$GPGSV,4,4,13,09,01,348,16*4B
$GLGSV,3,1,09,69,75,076,,84,69,113,,70,37,201,,85,29,317,*61
$GLGSV,3,2,09,68,24,036,,76,12,321,,83,11,129,,77,07,012,*67
$GLGSV,3,3,09,86,02,311,*53
$GPRMC,211206.000,A,5010.8236,N,02051.2383,E,0.01,2.62,290304,,,D*61
$GPVTG,2.62,T,,M,0.01,N,0.02,K,D*3D
$GPZDA,211206.000,29,03,2004,,*5E
$GPGGA,211207.000,5010.8236,N,02051.2383,E,2,8,1.02,162.8,M,41.7,M,0000,0000*5B
$GPGLL,5010.8236,N,02051.2383,E,211207.000,A,D*5C
$GPGSA,A,3,26,28,29,25,05,18,31,20,,,,,2.41,1.02,2.18*03
$GPGSV,4,1,13,29,68,064,17,18,50,196,32,26,44,299,17,31,39,258,36*7E
$GPGSV,4,2,13,25,33,140,40,36,32,176,37,28,31,230,34,05,31,081,18*72
$GPGSV,4,3,13,20,20,044,23,16,18,305,19,04,02,318,16,11,01,041,*72
$GPGSV,4,4,13,09,01,348,16*4B
$GLGSV,3,1,09,69,75,076,,84,69,113,,70,37,201,,85,29,317,*61
$GLGSV,3,2,09,68,24,036,,76,12,321,,83,11,129,,77,07,012,*67
$GLGSV,3,3,09,86,02,311,*53
$GPVTG,2.62,T,,M,0.03,N,0.06,K,D*3B
$GPGGA,211208.000,5010.8236,N,02051.2383,E,2,8,1.02,162.8,M,41.7,M,0000,0000*54
$GPGLL,5010.8236,N,02051.2383,E,211208.000,A,D*53
$GPGSA,A,3,26,28,29,25,05,18,31,20,,,,,2.40,1.02,2.18*02
$GPGSV,4,1,13,29,68,064,17,18,50,196,32,26,44,299,17,31,39,258,36*7E
$GPGSV,4,2,13,25,33,140,40,36,32,176,37,28,31,230,34,05,31,081,18*72
$GPGSV,4,3,13,20,20,044,23,16,18,305,19,04,02,318,17,11,01,041,*73
$GPGSV,4,4,13,09,01,348,16*4B
$GLGSV,3,1,09,69,75,076,,84,69,113,,70,37,201,,85,29,317,*61
$GLGSV,3,2,09,68,24,036,,76,12,321,,83,11,129,,77,07,012,*67
$GLGSV,3,3,09,86,02,311,*53
$GPVTG,2.62,T,,M,0.01,N,0.01,K,D*3E
$GPZDA,211208.000,29,03,2004,,*50
$GPGGA,211209.000,5010.8236,N,02051.2382,E,2,8,1.02,162.8,M,41.7,M,0000,0000*54
$GPGLL,5010.8236,N,02051.2382,E,211209.000,A,D*53
$GPGSA,A,3,26,28,29,25,05,18,31,20,,,,,2.40,1.02,2.18*02
$GPGSV,4,1,13,29,68,064,17,18,50,196,32,26,44,299,17,31,39,258,37*7F
$GPGSV,4,2,13,25,33,140,40,36,32,176,38,28,31,230,34,05,31,081,18*7D
$GPGSV,4,3,13,20,20,044,23,16,18,305,19,04,02,318,18,11,01,041,*7C
$GPGSV,4,4,13,09,01,348,16*4B
$GLGSV,3,1,09,69,75,076,,84,69,113,,70,37,201,,85,29,317,*61
$GLGSV,3,2,09,68,24,036,,76,12,321,,83,11,129,,77,07,012,*67
$GLGSV,3,3,09,86,02,311,*53
$GPRMC,211209.000,A,5010.8236,N,02051.2382,E,0.00,2.62,290304,,,D*6E
$GPVTG,2.62,T,,M,0.00,N,0.01,K,D*3F
$GPGGA,211210.000,5010.8236,N,02051.2382,E,2,8,1.02,162.8,M,41.7,M,0000,0000*5C
$GPGLL,5010.8236,N,02051.2382,E,211210.000,A,D*5B
$GPGSA,A,3,26,28,29,25,05,18,31,20,,,,,2.40,1.02,2.18*02
$GPGSV,4,1,13,29,68,064,17,18,50,196,32,26,44,299,18,31,39,258,37*70
$GPGSV,4,2,13,25,33,140,40,36,32,176,38,28,31,230,35,05,31,081,18*7C
$GPGSV,4,3,13,20,20,044,23,16,18,305,19,04,02,318,18,11,01,041,*7C
$GPGSV,4,4,13,09,01,348,16*4B
$GLGSV,3,1,09,69,75,076,,84,69,113,,70,37,201,,85,29,317,*61
$GLGSV,3,2,09,68,24,036,,76,12,321,,83,11,129,,77,07,012,*67
$GLGSV,3,3,09,86,02,311,*53
$GPVTG,2.62,T,,M,0.01,N,0.01,K,D*3E
$GPZDA,211210.000,29,03,2004,,*59
$GPGGA,211211.000,5010.8236,N,02051.2382,E,2,8,1.02,162.8,M,41.7,M,0000,0000*5D
$GPGLL,5010.8236,N,02051.2382,E,211211.000,A,D*5A
$GPGSA,A,3,26,28,29,25,05,18,31,20,,,,,2.41,1.02,2.18*03
$GPGSV,4,1,13,29,68,064,18,18,50,196,33,26,44,299,19,31,39,258,37*7F
$GPGSV,4,2,13,25,33,140,40,36,32,176,38,28,31,230,35,05,31,081,17*73
$GPGSV,4,3,13,20,20,044,23,16,18,305,19,04,02,318,18,11,01,041,*7C
$GPGSV,4,4,13,09,01,348,17*4A
$GLGSV,3,1,09,69,75,076,,84,69,113,,70,37,201,,85,29,317,*61
$GLGSV,3,2,09,68,24,036,,76,12,321,,83,11,129,,77,07,011,*64
$GLGSV,3,3,09,86,02,311,*53
$GPVTG,2.62,T,,M,0.01,N,0.01,K,D*3E
$GPGGA,211212.000,5010.8236,N,02051.2382,E,2,8,1.02,162.8,M,41.7,M,0000,0000*5E
$GPGLL,5010.8236,N,02051.2382,E,211212.000,A,D*59
$GPGSA,A,3,26,28,29,25,05,18,31,20,,,,,2.40,1.02,2.18*02
$GPGSV,4,1,13,29,68,064,19,18,50,196,33,26,44,299,19,31,39,258,37*7E
$GPGSV,4,2,13,25,33,140,40,36,32,176,38,28,31,230,35,05,31,081,18*7C
$GPGSV,4,3,13,20,20,044,23,16,18,305,19,04,02,318,19,11,01,041,*7D
$GPGSV,4,4,13,09,01,348,16*4B
$GLGSV,3,1,09,69,75,076,,84,69,113,,70,37,201,,85,29,317,*61
$GLGSV,3,2,09,68,24,036,,76,12,321,,83,11,129,,77,07,011,*64
$GLGSV,3,3,09,86,02,311,*53
$GPRMC,211212.000,A,5010.8236,N,02051.2382,E,0.01,2.62,290304,,,D*65
$GPVTG,2.62,T,,M,0.01,N,0.01,K,D*3E
$GPZDA,211212.000,29,03,2004,,*5B
$GPGGA,211213.000,5010.8236,N,02051.2382,E,2,8,1.02,162.8,M,41.7,M,0000,0000*5F
$GPGLL,5010.8236,N,02051.2382,E,211213.000,A,D*58
$GPGSA,A,3,26,28,29,25,05,18,31,20,,,,,2.40,1.02,2.18*02
$GPGSV,4,1,13,29,68,064,20,18,50,196,33,26,44,299,19,31,39,258,37*74
$GPGSV,4,2,13,25,33,140,40,36,32,176,38,28,31,230,35,05,31,081,23*74
$GPGSV,4,3,13,20,20,044,23,16,18,305,19,04,02,318,19,11,01,041,*7D
$GPGSV,4,4,13,09,01,348,16*4B
$GLGSV,3,1,09,69,75,076,,84,69,113,,70,37,201,,85,29,317,*61
$GLGSV,3,2,09,68,24,036,,76,12,321,,83,11,129,,77,07,011,*64
$GLGSV,3,3,09,86,02,311,*53
$GPVTG,2.62,T,,M,0.03,N,0.05,K,D*38
$GPGGA,211214.000,5010.8236,N,02051.2382,E,2,8,1.02,162.9,M,41.7,M,0000,0000*59
$GPGLL,5010.8236,N,02051.2382,E,211214.000,A,D*5F
$GPGSA,A,3,26,28,29,25,05,18,31,20,,,,,2.40,1.02,2.18*02
$GPGSV,4,1,13,29,68,064,21,18,50,196,32,26,44,299,20,31,39,258,37*7E
$GPGSV,4,2,13,25,33,140,40,36,32,176,38,28,31,230,35,05,31,081,21*76
$GPGSV,4,3,13,20,20,044,23,16,18,305,18,04,02,318,19,11,01,041,*7C
$GPGSV,4,4,13,09,01,348,16*4B
$GLGSV,3,1,09,69,75,076,,84,69,113,,70,37,201,,85,29,317,22*61
$GLGSV,3,2,09,68,24,036,,76,12,321,,83,11,129,,77,07,011,*64
$GLGSV,3,3,09,86,02,311,*53
$GPVTG,2.62,T,,M,0.01,N,0.02,K,D*3D
$GPZDA,211214.000,29,03,2004,,*5D
$GPGGA,211215.000,5010.8236,N,02051.2382,E,2,8,1.02,162.9,M,41.7,M,0000,0000*58
$GPGLL,5010.8236,N,02051.2382,E,211215.000,A,D*5E
$GPGSA,A,3,26,28,29,25,05,18,31,20,,,,,2.40,1.02,2.17*0D
$GPGSV,4,1,13,29,68,064,21,18,50,196,32,26,44,299,20,31,39,258,37*7E
$GPGSV,4,2,13,25,33,140,40,36,32,176,38,28,31,230,35,05,31,081,20*77
$GPGSV,4,3,13,20,20,044,23,16,18,305,18,04,02,318,19,11,01,041,*7C
$GPGSV,4,4,13,09,01,348,16*4B
$GLGSV,3,1,09,69,75,076,,84,69,113,,70,37,201,,85,29,317,*61
$GLGSV,3,2,09,68,24,036,,76,12,321,,83,11,129,,77,07,011,*64
$GLGSV,3,3,09,86,02,311,*53
$GPRMC,211215.000,A,5010.8236,N,02051.2382,E,0.02,2.62,290304,,,D*61
$GPVTG,2.62,T,,M,0.02,N,0.04,K,D*38
$GPGGA,211216.000,5010.8236,N,02051.2382,E,2,8,1.02,162.9,M,41.7,M,0000,0000*5B
$GPGLL,5010.8236,N,02051.2382,E,211216.000,A,D*5D
$GPGSA,A,3,26,28,29,25,05,18,31,20,,,,,2.40,1.02,2.17*0D
$GPGSV,4,1,13,29,68,064,21,18,50,196,32,26,44,299,21,31,39,258,37*7F
$GPGSV,4,2,13,25,33,140,40,36,32,176,37,28,31,230,35,05,31,081,19*72
$GPGSV,4,3,13,20,20,044,23,16,18,305,18,04,02,318,19,11,01,041,*7C
$GPGSV,4,4,13,09,01,348,16*4B
$GLGSV,3,1,09,69,75,076,,84,69,113,,70,37,201,,85,29,317,*61
$GLGSV,3,2,09,68,24,036,,76,12,321,,83,11,129,,77,07,011,*64
$GLGSV,3,3,09,86,02,311,*53
$GPVTG,2.62,T,,M,0.03,N,0.06,K,D*3B
$GPZDA,211216.000,29,03,2004,,*5F
$GPGGA,211217.000,5010.8236,N,02051.2382,E,2,8,1.02,162.9,M,41.7,M,0000,0000*5A
$GPGLL,5010.8236,N,02051.2382,E,211217.000,A,D*5C
$GPGSA,A,3,26,28,29,25,05,18,31,20,,,,,2.40,1.02,2.17*0D
$GPGSV,4,1,13,29,68,064,21,18,50,196,32,26,44,299,22,31,39,258,37*7C
$GPGSV,4,2,13,25,33,140,40,36,32,176,37,28,31,230,35,05,31,081,19*72
$GPGSV,4,3,13,20,20,044,23,16,18,305,18,04,02,318,19,11,01,041,*7C
$GPGSV,4,4,13,09,01,348,15*48
$GLGSV,3,1,09,69,75,076,,84,69,113,,70,37,201,,85,29,317,*61
$GLGSV,3,2,09,68,24,036,,76,12,321,,83,11,130,,77,07,011,*6C
$GLGSV,3,3,09,86,02,311,*53
$GPVTG,2.62,T,,M,0.01,N,0.02,K,D*3D
$GPGGA,211218.000,5010.8236,N,02051.2382,E,2,8,1.02,162.9,M,41.7,M,0000,0000*55
$GPGLL,5010.8236,N,02051.2382,E,211218.000,A,D*53
$GPGSA,A,3,26,28,29,25,05,18,31,20,,,,,2.40,1.02,2.17*0D
$GPGSV,4,1,13,29,68,064,22,18,50,196,32,26,44,299,22,31,39,258,37*7F
$GPGSV,4,2,13,25,33,140,40,36,32,176,37,28,31,230,35,05,31,081,19*72
$GPGSV,4,3,13,20,20,044,23,16,18,305,18,04,02,318,19,11,01,041,*7C
$GPGSV,4,4,13,09,01,348,15*48
$GLGSV,3,1,09,69,75,076,,84,68,115,,70,37,201,,85,29,317,*66
$GLGSV,3,2,09,68,24,036,,76,12,321,,83,11,130,,77,07,011,*6C
$GLGSV,3,3,09,86,02,311,*53
$GPRMC,211218.000,A,5010.8236,N,02051.2382,E,0.02,2.62,290304,,,D*6C
$GPVTG,2.62,T,,M,0.02,N,0.04,K,D*38
$GPZDA,211218.000,29,03,2004,,*51
$GPGGA,211219.000,5010.8236,N,02051.2382,E,2,8,1.02,162.9,M,41.7,M,0000,0000*54
$GPGLL,5010.8236,N,02051.2382,E,211219.000,A,D*52
$GPGSA,A,3,26,28,29,25,05,18,31,20,,,,,2.40,1.02,2.17*0D
$GPGSV,4,1,13,29,68,064,23,18,50,196,31,26,44,299,22,31,39,258,37*7D
$GPGSV,4,2,13,25,33,140,40,36,32,176,37,28,31,230,35,05,31,081,18*73
$GPGSV,4,3,13,20,20,044,22,16,18,305,18,04,02,318,19,11,01,041,*7D
$GPGSV,4,4,13,09,01,348,15*48
$GLGSV,3,1,09,69,75,076,,84,68,115,,70,37,201,,85,30,317,*6E
$GLGSV,3,2,09,68,24,036,,76,12,321,,83,11,130,,77,07,011,*6C
$GLGSV,3,3,09,86,02,311,*53
$GPVTG,2.62,T,,M,0.01,N,0.02,K,D*3D
$GPGGA,211220.000,5010.8236,N,02051.2382,E,2,8,1.02,162.9,M,41.7,M,0000,0000*5E
$GPGLL,5010.8236,N,02051.2382,E,211220.000,A,D*58
$GPGSA,A,3,26,28,29,25,05,18,31,20,,,,,2.40,1.02,2.17*0D
$GPGSV,4,1,13,29,68,064,24,18,50,196,31,26,44,299,22,31,39,258,37*7A
$GPGSV,4,2,13,25,33,140,40,36,32,176,37,28,31,230,35,05,31,081,18*73
$GPGSV,4,3,13,20,20,044,21,16,18,305,18,04,02,318,19,11,01,041,*7E
$GPGSV,4,4,13,09,01,348,16*4B
$GLGSV,3,1,09,69,75,076,,84,68,115,,70,37,201,,85,30,317,*6E
$GLGSV,3,2,09,68,24,036,,76,12,321,,83,11,130,,77,07,011,*6C
$GLGSV,3,3,09,86,02,311,*53
$GPVTG,2.62,T,,M,0.02,N,0.03,K,D*3F
$GPZDA,211220.000,29,03,2004,,*5A
$GPGGA,211221.000,5010.8236,N,02051.2382,E,2,8,1.02,162.9,M,41.7,M,0000,0000*5F
$GPGLL,5010.8236,N,02051.2382,E,211221.000,A,D*59
$GPGSA,A,3,26,28,29,25,05,18,31,20,,,,,2.40,1.02,2.17*0D
$GPGSV,4,1,13,29,68,064,24,18,50,196,31,26,44,299,22,31,39,258,37*7A
$GPGSV,4,2,13,25,33,140,40,36,32,176,37,28,31,230,35,05,31,081,17*7C
$GPGSV,4,3,13,20,20,044,20,16,18,305,17,04,02,318,19,11,01,041,*70
$GPGSV,4,4,13,09,01,348,16*4B
$GLGSV,3,1,09,69,75,076,,84,68,115,,70,37,201,,85,30,317,*6E
$GLGSV,3,2,09,68,24,036,,76,12,321,,83,11,130,,77,07,011,*6C
$GLGSV,3,3,09,86,02,311,*53
$GPRMC,211221.000,A,5010.8236,N,02051.2382,E,0.01,2.62,290304,,,D*65
$GPVTG,2.62,T,,M,0.01,N,0.01,K,D*3E
$GPGGA,211222.000,5010.8236,N,02051.2383,E,2,8,1.02,162.9,M,41.7,M,0000,0000*5D
$GPGLL,5010.8236,N,02051.2383,E,211222.000,A,D*5B
$GPGSA,A,3,26,28,29,25,05,18,31,20,,,,,2.40,1.02,2.17*0D
$GPGSV,4,1,13,29,68,064,24,18,50,196,31,26,44,299,22,31,39,258,37*7A
$GPGSV,4,2,13,25,33,140,40,36,32,176,37,28,31,230,35,05,31,081,17*7C
$GPGSV,4,3,13,20,20,044,20,16,18,305,17,04,02,318,19,11,01,041,*70
$GPGSV,4,4,13,09,01,348,16*4B
$GLGSV,3,1,09,69,75,076,,84,68,115,,70,37,201,,85,30,317,*6E
$GLGSV,3,2,09,68,24,036,,76,12,321,,83,11,130,,77,07,011,*6C
$GLGSV,3,3,09,86,02,311,*53
$GPVTG,2.62,T,,M,0.01,N,0.01,K,D*3E
$GPZDA,211222.000,29,03,2004,,*58
$GPGGA,211223.000,5010.8236,N,02051.2383,E,2,8,1.02,162.9,M,41.7,M,0000,0000*5C
$GPGLL,5010.8236,N,02051.2383,E,211223.000,A,D*5A
$GPGSA,A,3,26,28,29,25,05,18,31,20,,,,,2.40,1.02,2.17*0D
$GPGSV,4,1,13,29,68,064,24,18,50,196,31,26,44,299,22,31,39,258,37*7A
$GPGSV,4,2,13,25,33,140,40,36,32,176,37,28,31,230,35,05,31,081,17*7C
$GPGSV,4,3,13,20,20,044,20,16,18,305,17,04,02,318,20,11,01,041,*7A
$GPGSV,4,4,13,09,01,348,16*4B
$GLGSV,3,1,09,69,75,076,,84,68,115,,70,37,201,,85,30,317,*6E
$GLGSV,3,2,09,68,24,036,,76,12,321,,83,11,130,,77,07,011,*6C
$GLGSV,3,3,09,86,02,311,*53
$GPVTG,2.62,T,,M,0.01,N,0.02,K,D*3D
$GPGGA,211224.000,5010.8236,N,02051.2383,E,2,8,1.02,162.9,M,41.7,M,0000,0000*5B
$GPGLL,5010.8236,N,02051.2383,E,211224.000,A,D*5D
$GPGSA,A,3,26,28,29,25,05,18,31,20,,,,,2.40,1.02,2.17*0D
$GPGSV,4,1,13,29,68,064,25,18,50,196,31,26,44,299,22,31,39,258,37*7B
$GPGSV,4,2,13,25,33,140,40,36,32,176,37,28,31,230,35,05,31,081,17*7C
$GPGSV,4,3,13,20,20,044,20,16,18,305,17,04,02,318,21,11,01,041,*7B
$GPGSV,4,4,13,09,01,348,16*4B
$GLGSV,3,1,09,69,75,076,,84,68,115,,70,37,201,,85,30,317,*6E
$GLGSV,3,2,09,68,24,036,,76,12,321,,83,11,130,,77,07,011,*6C
$GLGSV,3,3,09,86,02,311,*53
$GPRMC,211224.000,A,5010.8236,N,02051.2383,E,0.02,2.62,290304,,,D*62
$GPVTG,2.62,T,,M,0.02,N,0.03,K,D*3F
$GPZDA,211224.000,29,03,2004,,*5E
$GPGGA,211225.000,5010.8236,N,02051.2383,E,2,8,1.02,162.9,M,41.7,M,0000,0000*5A
$GPGLL,5010.8236,N,02051.2383,E,211225.000,A,D*5C
$GPGSA,A,3,26,28,29,25,05,18,31,20,,,,,2.40,1.02,2.17*0D
$GPGSV,4,1,13,29,68,064,25,18,50,196,31,26,44,299,23,31,39,258,37*7A
$GPGSV,4,2,13,25,33,140,40,36,32,176,37,28,31,230,35,05,31,081,17*7C
$GPGSV,4,3,13,20,20,044,20,16,18,305,17,04,02,318,22,11,01,041,*78
$GPGSV,4,4,13,09,01,348,16*4B
$GLGSV,3,1,09,69,75,076,,84,68,115,,70,37,201,,85,30,317,*6E
$GLGSV,3,2,09,68,24,036,,76,12,321,,83,11,130,,77,07,011,*6C
$GLGSV,3,3,09,86,02,311,*53
$GPVTG,2.62,T,,M,0.01,N,0.02,K,D*3D
$GPGGA,211226.000,5010.8236,N,02051.2382,E,2,8,1.02,162.9,M,41.7,M,0000,0000*58
$GPGLL,5010.8236,N,02051.2382,E,211226.000,A,D*5E
$GPGSA,A,3,26,28,29,25,05,18,31,20,,,,,2.40,1.02,2.17*0D
$GPGSV,4,1,13,29,68,064,25,18,50,196,31,26,44,299,24,31,39,258,38*72
$GPGSV,4,2,13,25,33,140,41,36,32,176,37,28,31,230,36,05,31,081,17*7E
$GPGSV,4,3,13,20,20,044,20,16,18,305,18,04,02,317,24,11,01,041,*7E
$GPGSV,4,4,13,09,01,348,16*4B
$GLGSV,3,1,09,69,75,076,,84,68,115,,70,37,201,,85,30,317,*6E
$GLGSV,3,2,09,68,24,036,,76,12,321,,83,11,130,,77,07,011,*6C
$GLGSV,3,3,09,86,02,311,*53
$GPVTG,2.62,T,,M,0.06,N,0.10,K,D*39
$GPZDA,211226.000,29,03,2004,,*5C
$GPGGA,211227.000,5010.8236,N,02051.2382,E,2,8,1.02,162.9,M,41.7,M,0000,0000*59
$GPGLL,5010.8236,N,02051.2382,E,211227.000,A,D*5F
$GPGSA,A,3,26,28,29,25,05,18,31,20,,,,,2.40,1.02,2.17*0D
$GPGSV,4,1,13,29,68,064,24,18,50,196,31,26,44,299,24,31,39,258,38*73
$GPGSV,4,2,13,25,33,140,41,36,32,176,37,28,31,230,36,05,31,080,17*7F
$GPGSV,4,3,13,20,20,044,20,16,18,305,17,04,02,317,24,11,01,041,*71
$GPGSV,4,4,13,09,01,348,16*4B
$GLGSV,3,1,09,69,75,076,,84,68,115,,70,37,201,,85,30,317,*6E
$GLGSV,3,2,09,68,24,036,,76,12,321,,83,11,130,,77,07,011,*6C
$GLGSV,3,3,09,86,02,311,*53
$GPRMC,211227.000,A,5010.8236,N,02051.2382,E,0.04,2.62,290304,,,D*66
$GPVTG,2.62,T,,M,0.04,N,0.07,K,D*3D
$GPGGA,211228.000,5010.8236,N,02051.2382,E,2,8,1.02,162.9,M,41.7,M,0000,0000*56
$GPGLL,5010.8236,N,02051.2382,E,211228.000,A,D*50
$GPGSA,A,3,26,28,29,25,05,18,31,20,,,,,2.40,1.02,2.17*0D
$GPGSV,4,1,13,29,68,064,24,18,50,196,31,26,44,299,24,31,39,258,38*73
$GPGSV,4,2,13,25,33,140,41,36,32,176,37,28,31,230,36,05,31,080,17*7F
$GPGSV,4,3,13,20,20,044,20,16,18,305,17,04,02,317,24,11,01,041,*71
$GPGSV,4,4,13,09,01,348,16*4B
$GLGSV,3,1,09,69,75,076,,84,68,115,,70,37,201,,85,30,317,*6E
$GLGSV,3,2,09,68,24,036,,76,12,321,,83,11,130,,77,07,011,*6C
$GLGSV,3,3,09,86,02,311,*53
$GPVTG,2.62,T,,M,0.02,N,0.03,K,D*3F
$GPZDA,211228.000,29,03,2004,,*52
$GPGGA,211229.000,5010.8236,N,02051.2382,E,2,8,1.02,162.9,M,41.7,M,0000,0000*57
$GPGLL,5010.8236,N,02051.2382,E,211229.000,A,D*51
$GPGSA,A,3,26,28,29,25,05,18,31,20,,,,,2.40,1.02,2.17*0D
$GPGSV,4,1,13,29,68,064,24,18,50,196,31,26,44,299,24,31,39,258,38*73
$GPGSV,4,2,13,25,33,140,41,36,32,176,37,28,31,230,36,05,31,080,16*7E
$GPGSV,4,3,13,20,20,044,20,16,18,305,17,04,02,317,24,11,01,041,*71
$GPGSV,4,4,13,09,01,348,16*4B
$GLGSV,3,1,09,69,75,076,,84,68,115,,70,37,201,,85,30,317,*6E
$GLGSV,3,2,09,68,24,036,,76,12,321,,83,11,130,,77,07,011,*6C
$GLGSV,3,3,09,86,02,311,*53
$GPVTG,2.62,T,,M,0.04,N,0.07,K,D*3D
$GPGGA,211230.000,5010.8236,N,02051.2382,E,2,8,1.02,162.9,M,41.7,M,0000,0000*5F
$GPGLL,5010.8236,N,02051.2382,E,211230.000,A,D*59
$GPGSA,A,3,26,28,29,25,05,18,31,20,,,,,2.40,1.02,2.17*0D
$GPGSV,4,1,13,29,68,064,24,18,50,196,31,26,44,299,24,31,39,258,38*73
$GPGSV,4,2,13,25,33,140,41,36,32,176,37,28,31,230,36,05,31,080,16*7E
$GPGSV,4,3,13,20,20,044,20,16,18,305,17,04,02,317,24,11,01,041,*71
$GPGSV,4,4,13,09,01,348,16*4B
$GLGSV,3,1,09,69,75,076,,84,68,115,,70,37,201,,85,30,317,*6E
$GLGSV,3,2,09,68,24,036,,76,12,321,,83,11,130,,77,07,011,*6C
$GLGSV,3,3,09,86,02,311,*53
$GPRMC,211230.000,A,5010.8236,N,02051.2382,E,0.02,2.62,290304,,,D*66
$GPVTG,2.62,T,,M,0.02,N,0.04,K,D*38
$GPZDA,211230.000,29,03,2004,,*5B
