$GPGGA,212625.000,5010.8257,N,02051.2398,E,2,8,1.02,174.9,M,41.7,M,0000,0000*57
$GPGLL,5010.8257,N,02051.2398,E,212625.000,A,D*56
$GPGSA,A,3,20,26,28,29,25,05,18,31,,,,,2.07,1.02,1.80*03
$GPGSV,3,1,12,29,62,070,24,18,58,196,41,26,50,295,25,31,36,251,38*7B
$GPGSV,3,2,12,05,32,073,24,36,32,176,36,28,26,225,38,25,26,143,38*72
$GPGSV,3,3,12,16,24,306,16,20,17,039,21,23,04,164,18,09,01,343,*77
$GLGSV,3,1,09,69,69,056,,84,61,126,,70,44,204,,85,37,319,*60
$GLGSV,3,2,09,68,18,036,,76,09,315,,77,09,005,,86,08,314,*6C
$GLGSV,3,3,09,83,05,134,*54
$GPRMC,212625.000,A,5010.8257,N,02051.2398,E,0.00,0.23,290304,,,D*6C
$GPVTG,0.23,T,,M,0.00,N,0.01,K,D*38
$GPGGA,212625.500,5010.8257,N,02051.2398,E,2,8,1.02,174.9,M,41.7,M,0000,0000*52
$GPGLL,5010.8257,N,02051.2398,E,212625.500,A,D*53
$GPGSA,A,3,20,26,28,29,25,05,18,31,,,,,2.07,1.02,1.80*03
$GPGSV,3,1,12,29,62,070,24,18,58,196,41,26,50,295,25,31,36,251,38*7B
$GPGSV,3,2,12,05,32,073,24,36,32,176,36,28,26,225,38,25,26,143,38*72
$GPGSV,3,3,12,16,24,306,16,20,17,039,21,23,04,164,18,09,01,343,*77
$GLGSV,3,1,09,69,69,056,,84,61,126,,70,44,204,,85,37,319,*60
$GLGSV,3,2,09,68,18,036,,76,09,315,,77,09,005,,86,08,314,*6C
$GLGSV,3,3,09,83,05,134,*54
$GPVTG,0.23,T,,M,0.01,N,0.02,K,D*3A
$GPZDA,212625.500,29,03,2004,,*5D
$GPGGA,212626.000,5010.8257,N,02051.2398,E,2,8,1.02,174.9,M,41.7,M,0000,0000*54
$GPGLL,5010.8257,N,02051.2398,E,212626.000,A,D*55
$GPGSA,A,3,20,26,28,29,25,05,18,31,,,,,2.07,1.02,1.80*03
$GPGSV,3,1,12,29,62,070,24,18,58,196,41,26,50,295,25,31,36,251,38*7B
$GPGSV,3,2,12,05,32,073,24,36,32,176,36,28,26,225,38,25,26,143,38*72
$GPGSV,3,3,12,16,24,306,16,20,17,039,21,23,04,164,19,09,01,343,*76
$GLGSV,3,1,09,69,69,056,,84,61,126,,70,44,204,,85,37,319,*60
$GLGSV,3,2,09,68,18,036,,76,09,315,,77,09,005,,86,08,314,*6C
$GLGSV,3,3,09,83,05,134,*54
$GPVTG,0.23,T,,M,0.02,N,0.03,K,D*38
$GPGGA,212626.500,5010.8257,N,02051.2398,E,2,8,1.02,174.9,M,41.7,M,0000,0000*51
$GPGLL,5010.8257,N,02051.2398,E,212626.500,A,D*50
$GPGSA,A,3,20,26,28,29,25,05,18,31,,,,,2.07,1.02,1.80*03
$GPGSV,3,1,12,29,62,070,24,18,58,196,41,26,50,295,25,31,36,251,38*7B
$GPGSV,3,2,12,05,32,073,23,36,32,176,36,28,26,225,38,25,26,143,38*75
$GPGSV,3,3,12,16,24,306,16,20,17,039,21,23,04,164,19,09,01,343,*76
$GLGSV,3,1,09,69,69,056,,84,61,126,,70,44,204,,85,37,319,*60
$GLGSV,3,2,09,68,18,036,,76,09,315,,77,09,005,,86,08,314,*6C
$GLGSV,3,3,09,83,05,134,*54
$GPRMC,212626.500,A,5010.8257,N,02051.2398,E,0.02,0.23,290304,,,D*68
$GPVTG,0.23,T,,M,0.02,N,0.03,K,D*38
$GPZDA,212626.500,29,03,2004,,*5E
$GPGGA,212627.000,5010.8257,N,02051.2398,E,2,8,1.02,174.9,M,41.7,M,0000,0000*55
$GPGLL,5010.8257,N,02051.2398,E,212627.000,A,D*54
$GPGSA,A,3,20,26,28,29,25,05,18,31,,,,,2.07,1.02,1.80*03
$GPGSV,3,1,12,29,62,070,24,18,58,196,41,26,50,295,25,31,36,251,38*7B
$GPGSV,3,2,12,05,32,073,22,36,32,176,36,28,26,225,38,25,26,143,38*74
$GPGSV,3,3,12,16,24,306,16,20,17,039,21,23,04,164,19,09,01,343,*76
$GLGSV,3,1,09,69,69,056,,84,61,126,,70,44,204,,85,37,319,*60
$GLGSV,3,2,09,68,17,036,,76,09,315,,77,09,005,,86,08,314,*63
$GLGSV,3,3,09,83,05,134,*54
$GPVTG,0.23,T,,M,0.02,N,0.03,K,D*38
$GPGGA,212627.500,5010.8257,N,02051.2398,E,2,8,1.02,174.9,M,41.7,M,0000,0000*50
$GPGLL,5010.8257,N,02051.2398,E,212627.500,A,D*51
$GPGSA,A,3,20,26,28,29,25,05,18,31,,,,,2.07,1.02,1.80*03
$GPGSV,3,1,12,29,62,070,24,18,58,196,41,26,50,295,25,31,36,251,38*7B
$GPGSV,3,2,12,05,32,073,22,36,32,176,36,28,26,225,38,25,26,143,38*74
$GPGSV,3,3,12,16,24,306,16,20,17,039,21,23,04,164,19,09,01,343,*76
$GLGSV,3,1,09,69,69,055,,84,61,126,,70,44,204,,85,37,319,*63
$GLGSV,3,2,09,68,17,036,,76,09,315,,77,09,005,,86,08,314,*63
$GLGSV,3,3,09,83,05,134,*54
$GPVTG,0.23,T,,M,0.01,N,0.01,K,D*39
$GPZDA,212627.500,29,03,2004,,*5F
$GPGGA,212628.000,5010.8257,N,02051.2398,E,2,8,1.02,174.9,M,41.7,M,0000,0000*5A
$GPGLL,5010.8257,N,02051.2398,E,212628.000,A,D*5B
$GPGSA,A,3,20,26,28,29,25,05,18,31,,,,,2.07,1.02,1.80*03
$GPGSV,3,1,12,29,62,070,24,18,58,196,41,26,50,295,25,31,36,251,38*7B
$GPGSV,3,2,12,05,32,073,22,36,32,176,36,28,26,225,38,25,26,143,38*74
$GPGSV,3,3,12,16,24,306,16,20,17,039,21,23,04,164,19,09,01,343,*76
$GLGSV,3,1,09,69,69,055,,84,61,126,,70,45,204,,85,37,319,*62
$GLGSV,3,2,09,68,17,036,,76,09,315,,77,09,005,,86,08,314,*63
$GLGSV,3,3,09,83,05,134,*54
$GPRMC,212628.000,A,5010.8257,N,02051.2398,E,0.00,0.23,290304,,,D*61
$GPVTG,0.23,T,,M,0.00,N,0.01,K,D*38
$GPGGA,212628.500,5010.8257,N,02051.2398,E,2,8,1.02,174.9,M,41.7,M,0000,0000*5F
$GPGLL,5010.8257,N,02051.2398,E,212628.500,A,D*5E
$GPGSA,A,3,20,26,28,29,25,05,18,31,,,,,2.07,1.02,1.80*03
$GPGSV,3,1,12,29,62,070,24,18,58,196,41,26,50,295,25,31,36,251,38*7B
$GPGSV,3,2,12,05,32,073,22,36,32,176,36,28,26,225,38,25,26,143,38*74
$GPGSV,3,3,12,16,24,306,16,20,17,039,21,23,04,164,19,09,01,343,*76
$GLGSV,3,1,09,69,69,055,,84,61,126,,70,45,204,,85,37,319,*62
$GLGSV,3,2,09,68,17,036,,76,09,315,,77,09,005,,86,08,314,*63
$GLGSV,3,3,09,83,05,134,*54
$GPVTG,0.23,T,,M,0.00,N,0.00,K,D*39
$GPZDA,212628.500,29,03,2004,,*50
$GPGGA,212629.000,5010.8257,N,02051.2398,E,2,8,1.02,174.9,M,41.7,M,0000,0000*5B
$GPGLL,5010.8257,N,02051.2398,E,212629.000,A,D*5A
$GPGSA,A,3,20,26,28,29,25,05,18,31,,,,,2.07,1.02,1.80*03
$GPGSV,3,1,12,29,62,070,24,18,58,196,41,26,50,295,25,31,36,251,38*7B
$GPGSV,3,2,12,05,32,073,21,36,32,176,36,28,26,225,38,25,26,143,38*77
$GPGSV,3,3,12,16,24,306,16,20,17,039,21,23,04,164,19,09,01,343,*76
$GLGSV,3,1,09,69,69,055,,84,61,126,,70,45,204,,85,37,319,*62
$GLGSV,3,2,09,68,17,036,,76,09,315,,77,09,005,,86,08,314,*63
$GLGSV,3,3,09,83,05,134,*54
$GPVTG,0.23,T,,M,0.01,N,0.02,K,D*3A
