$GPGGA,212629.500,5010.8257,N,02051.2398,E,2,8,1.02,174.9,M,41.7,M,0000,0000*5E
$GPGLL,5010.8257,N,02051.2398,E,212629.500,A,D*5F
$GPGSA,A,3,20,26,28,29,25,05,18,31,,,,,2.07,1.02,1.80*03
$GPGSV,3,1,12,29,62,070,25,18,58,196,41,26,50,295,25,31,36,251,38*7A
$GPGSV,3,2,12,05,32,073,20,36,32,176,36,28,26,225,38,25,26,143,38*76
$GPGSV,3,3,12,16,24,306,16,20,17,039,22,23,04,164,19,09,01,343,*75
$GLGSV,3,1,09,69,69,055,,84,61,126,,70,45,204,,85,37,319,*62
$GLGSV,3,2,09,68,17,036,,76,09,315,,77,09,005,,86,08,314,*63
$GLGSV,3,3,09,83,05,134,*54
$GPRMC,212629.500,A,5010.8257,N,02051.2398,E,0.01,0.23,290304,,,D*64
$GPVTG,0.23,T,,M,0.01,N,0.01,K,D*39
$GPZDA,212629.500,29,03,2004,,*51
$GPGGA,212630.000,5010.8257,N,02051.2398,E,2,8,1.02,174.9,M,41.7,M,0000,0000*53
$GPGLL,5010.8257,N,02051.2398,E,212630.000,A,D*52
$GPGSA,A,3,20,26,28,29,25,05,18,31,,,,,2.07,1.02,1.80*03
$GPGSV,3,1,12,29,62,070,25,18,58,196,41,26,50,295,25,31,36,251,38*7A
$GPGSV,3,2,12,05,32,073,20,36,32,176,36,28,26,225,38,25,26,143,38*76
$GPGSV,3,3,12,16,24,306,16,20,17,039,22,23,04,164,19,09,01,343,*75
$GLGSV,3,1,09,69,69,055,,84,61,126,,70,45,204,,85,37,319,*62
$GLGSV,3,2,09,68,17,036,,76,09,315,,77,09,005,,86,08,314,*63
$GLGSV,3,3,09,83,05,134,*54
$GPVTG,0.23,T,,M,0.01,N,0.01,K,D*39
$GPGGA,212630.500,5010.8257,N,02051.2398,E,2,8,1.02,174.9,M,41.7,M,0000,0000*56
$GPGLL,5010.8257,N,02051.2398,E,212630.500,A,D*57
$GPGSA,A,3,20,26,28,29,25,05,18,31,,,,,2.07,1.02,1.80*03
$GPGSV,3,1,12,29,62,070,26,18,58,196,41,26,50,295,25,31,36,251,38*79
$GPGSV,3,2,12,05,32,073,20,36,32,176,36,28,26,225,38,25,26,143,38*76
$GPGSV,3,3,12,16,24,306,16,20,17,039,22,23,04,164,19,09,01,343,*75
$GLGSV,3,1,09,69,69,055,,84,61,126,,70,45,204,,85,37,319,*62
$GLGSV,3,2,09,68,17,036,,76,09,315,,77,09,005,,86,08,314,*63
$GLGSV,3,3,09,83,05,134,*54
$GPVTG,0.23,T,,M,0.00,N,0.00,K,D*39
$GPZDA,212630.500,29,03,2004,,*59
$GPGGA,212631.000,5010.8257,N,02051.2398,E,2,8,1.02,174.9,M,41.7,M,0000,0000*52
$GPGLL,5010.8257,N,02051.2398,E,212631.000,A,D*53
$GPGSA,A,3,20,26,28,29,25,05,18,31,,,,,2.07,1.02,1.80*03
$GPGSV,3,1,12,29,62,070,26,18,58,196,41,26,50,295,25,31,36,251,38*79
$GPGSV,3,2,12,05,32,073,20,36,32,176,36,28,26,225,38,25,26,143,38*76
$GPGSV,3,3,12,16,24,306,16,20,17,039,22,23,04,164,19,09,01,343,*75
$GLGSV,3,1,09,69,69,055,,84,61,126,,70,45,204,,85,37,319,*62
$GLGSV,3,2,09,68,17,036,,76,09,314,,77,09,005,,86,08,314,*62
$GLGSV,3,3,09,83,05,134,*54
$GPRMC,212631.000,A,5010.8257,N,02051.2398,E,0.01,0.23,290304,,,D*68
$GPVTG,0.23,T,,M,0.01,N,0.01,K,D*39
$GPGGA,212631.500,5010.8257,N,02051.2398,E,2,8,1.02,174.9,M,41.7,M,0000,0000*57
$GPGLL,5010.8257,N,02051.2398,E,212631.500,A,D*56
$GPGSA,A,3,20,26,28,29,25,05,18,31,,,,,2.07,1.02,1.80*03
$GPGSV,3,1,12,29,62,070,26,18,58,196,41,26,50,295,25,31,36,251,38*79
$GPGSV,3,2,12,05,32,073,20,36,32,176,36,28,26,225,38,25,26,143,38*76
$GPGSV,3,3,12,16,24,306,16,20,17,039,22,23,04,164,19,09,01,343,*75
$GLGSV,3,1,09,69,69,055,,84,61,126,,70,45,204,,85,37,319,*62
$GLGSV,3,2,09,68,17,036,,76,09,314,,77,09,005,,86,08,314,*62
$GLGSV,3,3,09,83,05,134,*54
$GPVTG,0.23,T,,M,0.01,N,0.02,K,D*3A
$GPZDA,212631.500,29,03,2004,,*58
$GPGGA,212632.000,5010.8257,N,02051.2398,E,2,8,1.02,174.9,M,41.7,M,0000,0000*51
$GPGLL,5010.8257,N,02051.2398,E,212632.000,A,D*50
$GPGSA,A,3,20,26,28,29,25,05,18,31,,,,,2.07,1.02,1.80*03
$GPGSV,3,1,12,29,62,070,26,18,58,196,41,26,50,295,24,31,36,251,38*78
$GPGSV,3,2,12,05,32,073,20,36,32,176,36,28,26,225,38,25,26,143,38*76
$GPGSV,3,3,12,16,24,306,16,20,17,039,22,23,04,164,19,09,01,343,*75
$GLGSV,3,1,09,69,69,055,,84,61,126,,70,45,204,,85,37,319,*62
$GLGSV,3,2,09,68,17,036,,76,09,314,,77,09,005,,86,08,314,*62
$GLGSV,3,3,09,83,05,134,*54
$GPVTG,0.23,T,,M,0.00,N,0.01,K,D*38
$GPGGA,212632.500,5010.8257,N,02051.2398,E,2,8,1.02,174.9,M,41.7,M,0000,0000*54
$GPGLL,5010.8257,N,02051.2398,E,212632.500,A,D*55
$GPGSA,A,3,20,26,28,29,25,05,18,31,,,,,2.07,1.02,1.80*03
$GPGSV,3,1,12,29,62,070,26,18,58,196,41,26,50,295,24,31,36,251,38*78
$GPGSV,3,2,12,05,32,073,19,36,32,176,36,28,26,225,38,25,26,143,38*7C
$GPGSV,3,3,12,16,24,306,16,20,17,039,22,23,04,164,19,09,01,343,*75
$GLGSV,3,1,09,69,69,055,,84,61,126,,70,45,204,,85,37,319,*62
$GLGSV,3,2,09,68,17,036,,76,09,314,,77,09,005,,86,08,314,*62
$GLGSV,3,3,09,83,05,134,*54
$GPRMC,212632.500,A,5010.8257,N,02051.2398,E,0.01,0.23,290304,,,D*6E
$GPVTG,0.23,T,,M,0.01,N,0.02,K,D*3A
$GPZDA,212632.500,29,03,2004,,*5B
$GPGGA,212633.000,5010.8257,N,02051.2398,E,2,8,1.02,174.9,M,41.7,M,0000,0000*50
$GPGLL,5010.8257,N,02051.2398,E,212633.000,A,D*51
$GPGSA,A,3,20,26,28,29,25,05,18,31,,,,,2.07,1.02,1.80*03
$GPGSV,3,1,12,29,62,070,26,18,58,196,41,26,50,295,24,31,36,251,38*78
$GPGSV,3,2,12,05,32,073,19,36,32,176,36,28,26,225,38,25,26,143,38*7C
$GPGSV,3,3,12,16,24,306,16,20,17,039,22,23,04,164,19,09,01,343,*75
$GLGSV,3,1,09,69,69,055,,84,61,126,,70,45,204,,85,37,319,*62
$GLGSV,3,2,09,68,17,036,,76,09,314,,77,09,005,,86,08,314,*62
$GLGSV,3,3,09,83,05,134,*54
$GPVTG,0.23,T,,M,0.01,N,0.03,K,D*3B
$GPGGA,212633.500,5010.8257,N,02051.2398,E,2,8,1.02,174.9,M,41.7,M,0000,0000*55
$GPGLL,5010.8257,N,02051.2398,E,212633.500,A,D*54
$GPGSA,A,3,20,26,28,29,25,05,18,31,,,,,2.07,1.02,1.80*03
$GPGSV,3,1,12,29,62,070,26,18,58,196,41,26,50,295,24,31,36,251,38*78
$GPGSV,3,2,12,05,32,073,19,36,32,176,36,28,26,225,38,25,26,143,38*7C
$GPGSV,3,3,12,16,24,306,17,20,17,039,22,23,04,164,20,09,01,343,*7E
$GLGSV,3,1,09,69,69,055,,84,61,126,,70,45,204,,85,37,319,*62
$GLGSV,3,2,09,68,17,036,,76,09,314,,77,09,005,,86,08,314,*62
$GLGSV,3,3,09,83,05,134,*54
$GPVTG,0.23,T,,M,0.01,N,0.02,K,D*3A
$GPZDA,212633.500,29,03,2004,,*5A
$GPGGA,212634.000,5010.8257,N,02051.2398,E,2,8,1.02,174.9,M,41.7,M,0000,0000*57
$GPGLL,5010.8257,N,02051.2398,E,212634.000,A,D*56
$GPGSA,A,3,20,26,28,29,25,05,18,31,,,,,2.07,1.02,1.80*03
$GPGSV,3,1,12,29,62,070,26,18,58,196,41,26,50,295,25,31,36,251,38*79
$GPGSV,3,2,12,05,32,073,19,36,32,176,35,28,26,225,38,25,26,143,38*7F
$GPGSV,3,3,12,16,24,306,17,20,17,039,22,23,04,164,21,09,01,343,*7F
$GLGSV,3,1,09,69,69,055,,84,61,126,,70,45,204,,85,37,319,*62
$GLGSV,3,2,09,68,17,036,,76,09,314,,77,09,005,,86,08,314,*62
$GLGSV,3,3,09,83,05,134,*54
$GPRMC,212634.000,A,5010.8257,N,02051.2398,E,0.01,0.23,290304,,,D*6D
$GPVTG,0.23,T,,M,0.01,N,0.01,K,D*39
